{"type":"FeatureCollection", "features": [
{"type":"Feature","geometry":{"type":"Point","coordinates":[40.13237779809185,47.52789222815039,0]},"properties":{"name":"102nd Motor Rifle Regiment","description":"unit 91706\n\nT-72B1/B3, BMP-2s, 2S1 Gvozdika, 9K35 Strela-10","styleUrl":"#m_ylw-pushpin63","icon-scale":1.1,"icon-offset":[32,1],"icon-offset-units":["pixels","pixels"],"icon":"http://maps.google.com/mapfiles/kml/paddle/5.png"}},
{"type":"Feature","geometry":{"type":"Point","coordinates":[39.66792942738397,47.27920788838441,0]},"properties":{"name":"103rd Motor Rifle Regiment","description":"unit 91708","styleUrl":"#m_ylw-pushpin63","icon-scale":1.1,"icon-offset":[32,1],"icon-offset-units":["pixels","pixels"],"icon":"http://maps.google.com/mapfiles/kml/paddle/5.png"}},
{"type":"Feature","geometry":{"type":"Point","coordinates":[40.13687765976593,47.52766861592146,0]},"properties":{"name":"68th Tank Regiment","description":"unit 91714\n\nT-72B3M, BMP-3, 2S3 Akatasiya","styleUrl":"#m_ylw-pushpin63","icon-scale":1.1,"icon-offset":[32,1],"icon-offset-units":["pixels","pixels"],"icon":"http://maps.google.com/mapfiles/kml/paddle/5.png"}},
{"type":"Feature","geometry":{"type":"Point","coordinates":[40.13068174248839,47.52837080972914,0]},"properties":{"name":"163rd Tank Regiment","description":"unit 84839","styleUrl":"#m_ylw-pushpin531","icon-scale":1.1,"icon-offset":[32,1],"icon-offset-units":["pixels","pixels"],"icon":"http://maps.google.com/mapfiles/kml/paddle/5.png"}},
{"type":"Feature","geometry":{"type":"Point","coordinates":[40.12818738382357,47.52825034339453,0]},"properties":{"name":"/R 381st Artillery Regiment","description":"unit 24390\n\n2A65 Msta-B, D-30","styleUrl":"#m_ylw-pushpin531","icon-scale":1.1,"icon-offset":[32,1],"icon-offset-units":["pixels","pixels"],"icon":"http://maps.google.com/mapfiles/kml/paddle/5.png"}},
{"type":"Feature","geometry":{"type":"Point","coordinates":[39.24956607635686,47.42121853724501,0]},"properties":{"name":"/R 381st Artillery Regiment","description":"unit 24390\n\n2A65 Msta-B, D-30","styleUrl":"#m_ylw-pushpin531","icon-scale":1.1,"icon-offset":[32,1],"icon-offset-units":["pixels","pixels"],"icon":"http://maps.google.com/mapfiles/kml/paddle/5.png"}},
{"type":"Feature","geometry":{"type":"Point","coordinates":[40.41887359528807,48.92383992742819,0]},"properties":{"name":"933rd Anti-Aircraft Missile Regiment","description":"unit 15269\n\n9K332 Tor-M2","styleUrl":"#m_ylw-pushpin531","icon-scale":1.1,"icon-offset":[32,1],"icon-offset-units":["pixels","pixels"],"icon":"http://maps.google.com/mapfiles/kml/paddle/5.png"}},
{"type":"Feature","geometry":{"type":"Point","coordinates":[40.13063079052822,47.52731266304674,0]},"properties":{"name":"174th Separate Reconnaissance Battalion","description":"unit 22265","styleUrl":"#m_ylw-pushpin531","icon-scale":1.1,"icon-offset":[32,1],"icon-offset-units":["pixels","pixels"],"icon":"http://maps.google.com/mapfiles/kml/paddle/5.png"}},
{"type":"Feature","geometry":{"type":"Point","coordinates":[40.12581689359141,47.52888576904611,0]},"properties":{"name":"228th Separate Communications Battalion","description":"unit 84881","styleUrl":"#m_ylw-pushpin531","icon-scale":1.1,"icon-offset":[32,1],"icon-offset-units":["pixels","pixels"],"icon":"http://maps.google.com/mapfiles/kml/paddle/5.png"}},
{"type":"Feature","geometry":{"type":"Point","coordinates":[40.22195548459859,47.51558777301106,0]},"properties":{"name":"152nd Separate Logistics Battalion","description":"unit 98591","styleUrl":"#m_ylw-pushpin531","icon-scale":1.1,"icon-offset":[32,1],"icon-offset-units":["pixels","pixels"],"icon":"http://maps.google.com/mapfiles/kml/paddle/5.png"}},
{"type":"Feature","geometry":{"type":"Point","coordinates":[40.12553850189339,47.52727352262174,0]},"properties":{"name":"539th Separate Engineer-Sapper Battalion","styleUrl":"#m_ylw-pushpin531","icon-scale":1.1,"icon-offset":[32,1],"icon-offset-units":["pixels","pixels"],"icon":"http://maps.google.com/mapfiles/kml/paddle/5.png"}},
{"type":"Feature","geometry":{"type":"Point","coordinates":[40.12831859567999,47.52742375830636,0]},"properties":{"name":"Separate Anti-Tank Artillery Battalion","styleUrl":"#m_ylw-pushpin531","icon-scale":1.1,"icon-offset":[32,1],"icon-offset-units":["pixels","pixels"],"icon":"http://maps.google.com/mapfiles/kml/paddle/5.png"}},
{"type":"Feature","geometry":{"type":"Point","coordinates":[40.13240493282673,47.52539397528831,0]},"properties":{"name":"Separate Medical Battalion","styleUrl":"#m_ylw-pushpin531","icon-scale":1.1,"icon-offset":[32,1],"icon-offset-units":["pixels","pixels"],"icon":"http://maps.google.com/mapfiles/kml/paddle/5.png"}},
{"type":"Feature","geometry":{"type":"Point","coordinates":[40.13072294132586,47.52525534292391,0]},"properties":{"name":"150th Motor Rifle Division HQ","description":"unit 22265","styleUrl":"#msn_566","label-scale":1.2,"icon-scale":1.1,"icon-offset":[32,1],"icon-offset-units":["pixels","pixels"],"icon":"http://maps.google.com/mapfiles/kml/paddle/5.png"}},
{"type":"Feature","geometry":{"type":"Point","coordinates":[44.49947800123541,48.73965864326336,0]},"properties":{"name":"20th Separate Guards Motor Rifle Brigade HQ","description":"unit 69670","styleUrl":"#m_ylw-pushpin850","icon-scale":1.1,"icon-offset":[32,1],"icon-offset-units":["pixels","pixels"],"icon":"http://maps.google.com/mapfiles/kml/paddle/5.png"}},
{"type":"Feature","geometry":{"type":"Point","coordinates":[44.38534310068419,48.70422997112103,0]},"properties":{"name":"/B 20th Separate Guards Motor Rifle Brigade","description":"unit 69670\n\nT-90A, BMP-3, 2S19 Msta-S, 9K331 Tor-M1-2U","styleUrl":"#m_ylw-pushpin37","icon-scale":1.1,"icon-offset":[32,1],"icon-offset-units":["pixels","pixels"],"icon":"http://maps.google.com/mapfiles/kml/paddle/5.png"}},
{"type":"Feature","geometry":{"type":"Point","coordinates":[44.35269315777877,48.69232635471948,0]},"properties":{"name":"/B 20th Separate Guards Motor Rifle Brigade","description":"unit 69670\n\nT-90A, BMP-3, 2S19 Msta-S, 9K331 Tor-M1-2U","styleUrl":"#m_ylw-pushpin37","icon-scale":1.1,"icon-offset":[32,1],"icon-offset-units":["pixels","pixels"],"icon":"http://maps.google.com/mapfiles/kml/paddle/5.png"}},
{"type":"Feature","geometry":{"type":"Point","coordinates":[39.36264870672215,45.51917845565981,0]},"properties":{"name":"238th Artillery Brigade","description":"2A65 Msta-B","styleUrl":"#m_ylw-pushpin37","icon-scale":1.1,"icon-offset":[32,1],"icon-offset-units":["pixels","pixels"],"icon":"http://maps.google.com/mapfiles/kml/paddle/5.png"}},
{"type":"Feature","geometry":{"type":"Point","coordinates":[39.36089071925038,45.52289791841147,0]},"properties":{"name":"n/a Anti-Aircraft Missile Brigade","description":"9K317M Buk-M3","styleUrl":"#m_ylw-pushpin85","icon-scale":1.1,"icon-offset":[32,1],"icon-offset-units":["pixels","pixels"],"icon":"http://maps.google.com/mapfiles/kml/paddle/5.png"}},
{"type":"Feature","geometry":{"type":"Point","coordinates":[40.10482508706201,47.41178135849078,0]},"properties":{"name":"8th Guards Combined Arms Army HQ","description":"unit 33744","styleUrl":"#msn_541","label-scale":1.3,"icon-scale":1.1,"icon-offset":[32,1],"icon-offset-units":["pixels","pixels"],"icon":"http://maps.google.com/mapfiles/kml/paddle/5.png"}},
{"type":"Feature","geometry":{"type":"Point","coordinates":[41.08505740465954,42.93743967316275,0]},"properties":{"name":"Anti-Aircraft Missile Battalion","description":"S-300PM","styleUrl":"#msn_5217","icon-opacity":1,"icon-color":"#0091ff","icon-scale":1.1,"icon-offset":[32,1],"icon-offset-units":["pixels","pixels"],"icon":"http://maps.google.com/mapfiles/kml/paddle/5.png"}},
{"type":"Feature","geometry":{"type":"Point","coordinates":[40.73925548738973,43.09197657193518,0]},"properties":{"name":"Anti-Aircraft Missile Battalion","description":"S-300PM","styleUrl":"#msn_5217","icon-opacity":1,"icon-color":"#0091ff","icon-scale":1.1,"icon-offset":[32,1],"icon-offset-units":["pixels","pixels"],"icon":"http://maps.google.com/mapfiles/kml/paddle/5.png"}},
{"type":"Feature","geometry":{"type":"Point","coordinates":[40.58644336767694,43.10246644370367,0]},"properties":{"name":"7th Military Base","description":"unit 09332\n\nT-72B3, BTR-82AM, BM-21 Grad, 2S3M Akatsiya","styleUrl":"#m_ylw-pushpin06","icon-scale":1.1,"icon-offset":[32,1],"icon-offset-units":["pixels","pixels"],"icon":"http://maps.google.com/mapfiles/kml/paddle/5.png"}},
{"type":"Feature","geometry":{"type":"Point","coordinates":[41.38773951013923,43.81171248770178,0]},"properties":{"name":"34th Separate Motor Rifle Brigade (mountain)","description":"unit 01485\n\nMT-LBM 6MB & MT-LB VMK, BTR-80, 2S1 Gvozdika, 2S12 Sani","styleUrl":"#m_ylw-pushpin06","icon-scale":1.1,"icon-offset":[32,1],"icon-offset-units":["pixels","pixels"],"icon":"http://maps.google.com/mapfiles/kml/paddle/5.png"}},
{"type":"Feature","geometry":{"type":"Point","coordinates":[44.19696895395508,44.81050132723033,0]},"properties":{"name":"205th Separate Motor Rifle Brigade","description":"unit 74814\n\nT-72B3, MT-LB, 2S3 Akatsya & 2S19SM2 Msta-S, 9K331 Tor-M1","styleUrl":"#m_ylw-pushpin850","icon-scale":1.1,"icon-offset":[32,1],"icon-offset-units":["pixels","pixels"],"icon":"http://maps.google.com/mapfiles/kml/paddle/5.png"}},
{"type":"Feature","geometry":{"type":"Point","coordinates":[40.01493355944068,44.52953682619134,0]},"properties":{"name":"227th Artillery Brigade","description":"unit 13714\n\n2S19SM1, BM-27 Uragan, 2A65 Msta-B, MT-12 Rapira","styleUrl":"#msn_5201","icon-scale":1.1,"icon-offset":[32,1],"icon-offset-units":["pixels","pixels"],"icon":"http://maps.google.com/mapfiles/kml/paddle/5.png"}},
{"type":"Feature","geometry":{"type":"Point","coordinates":[39.21670984598887,44.78940186039664,0]},"properties":{"name":"1st Guards Missile Brigade","description":"unit 31853\n\n9K720 Iskander-M","styleUrl":"#msn_5201","icon-scale":1.1,"icon-offset":[32,1],"icon-offset-units":["pixels","pixels"],"icon":"http://maps.google.com/mapfiles/kml/paddle/5.png"}},
{"type":"Feature","geometry":{"type":"Point","coordinates":[41.96721601683539,45.04069610683946,0]},"properties":{"name":"49th Combined Arms Army HQ","description":"unit 35181","styleUrl":"#msn_541","label-scale":1.3,"icon-scale":1.1,"icon-offset":[32,1],"icon-offset-units":["pixels","pixels"],"icon":"http://maps.google.com/mapfiles/kml/paddle/5.png"}},
{"type":"Feature","geometry":{"type":"Point","coordinates":[41.96742432825105,45.04064551309026,0]},"properties":{"name":"25th Spetsnaz Brigade","description":"unit 05525\n\nGAZ-233014 STS Tiger","styleUrl":"#msn_5201","icon-scale":1.1,"icon-offset":[32,1],"icon-offset-units":["pixels","pixels"],"icon":"http://maps.google.com/mapfiles/kml/paddle/5.png"}},
{"type":"Feature","geometry":{"type":"Point","coordinates":[40.01214996417745,44.52961701785628,0]},"properties":{"name":"573rd Separate Reconnaissance Artillery Battalion","description":"unit 55030\n\nAZK-7, PRP-4M, 1L219 Zoopark","styleUrl":"#msn_5201","icon-scale":1.1,"icon-offset":[32,1],"icon-offset-units":["pixels","pixels"],"icon":"http://maps.google.com/mapfiles/kml/paddle/5.png"}},
{"type":"Feature","geometry":{"type":"Point","coordinates":[38.82612779963621,44.85870360737771,0]},"properties":{"name":"90th Anti-Aircraft Missile Brigade","description":"unit 54821\n\n9K317 Buk-M2","styleUrl":"#m_ylw-pushpin21","icon-scale":1.1,"icon-offset":[32,1],"icon-offset-units":["pixels","pixels"],"icon":"http://maps.google.com/mapfiles/kml/paddle/5.png"}},
{"type":"Feature","geometry":{"type":"Point","coordinates":[41.91973464257178,45.04973153918264,0]},"properties":{"name":"66th Command and Control Brigade","description":"unit 41600","styleUrl":"#m_ylw-pushpin21","icon-scale":1.1,"icon-offset":[32,1],"icon-offset-units":["pixels","pixels"],"icon":"http://maps.google.com/mapfiles/kml/paddle/5.png"}},
{"type":"Feature","geometry":{"type":"Point","coordinates":[40.14723248353481,44.56299489532263,0]},"properties":{"name":"99th Separate Logistics Brigade","description":"unit 72153","styleUrl":"#m_ylw-pushpin31","icon-scale":1.1,"icon-offset":[32,1],"icon-offset-units":["pixels","pixels"],"icon":"http://maps.google.com/mapfiles/kml/paddle/5.png"}},
{"type":"Feature","geometry":{"type":"Point","coordinates":[38.83071112638257,44.85836996527558,0]},"properties":{"name":"32nd Engineer-Sapper Regiment","description":"unit 23094","styleUrl":"#m_ylw-pushpin124","icon-scale":1.1,"icon-offset":[32,1],"icon-offset-units":["pixels","pixels"],"icon":"http://maps.google.com/mapfiles/kml/paddle/5.png"}},
{"type":"Feature","geometry":{"type":"Point","coordinates":[43.79926167177929,48.6531810942998,0]},"properties":{"name":"39th NBC Protection Regiment","description":"unit 16390","styleUrl":"#m_ylw-pushpin124","icon-scale":1.1,"icon-offset":[32,1],"icon-offset-units":["pixels","pixels"],"icon":"http://maps.google.com/mapfiles/kml/paddle/5.png"}},
{"type":"Feature","geometry":{"type":"Point","coordinates":[43.95762688927203,42.23591059244239,0]},"properties":{"name":"/MB 4th Guards Military Base","description":"unit 66431\n\nT-72BM, BMP-2, 2S3M Akatsiya, 9K35 Strela-10","styleUrl":"#m_ylw-pushpin30","icon-scale":1.1,"icon-offset":[32,1],"icon-offset-units":["pixels","pixels"],"icon":"http://maps.google.com/mapfiles/kml/paddle/5.png"}},
{"type":"Feature","geometry":{"type":"Point","coordinates":[43.8887826008913,42.38571870900111,0]},"properties":{"name":"/MB 4th Guards Military Base","description":"unit 66431\n\nT-72BM, BMP-2, 2S3M Akatsiya, 9K35 Strela-10","styleUrl":"#m_ylw-pushpin30","icon-scale":1.1,"icon-offset":[32,1],"icon-offset-units":["pixels","pixels"],"icon":"http://maps.google.com/mapfiles/kml/paddle/5.png"}},
{"type":"Feature","geometry":{"type":"Point","coordinates":[43.94464763591641,42.24840747502654,0]},"properties":{"name":"Anti-Aircraft Missile Division","description":"9K37 Buk-M1","styleUrl":"#m_ylw-pushpin30","icon-scale":1.1,"icon-offset":[32,1],"icon-offset-units":["pixels","pixels"],"icon":"http://maps.google.com/mapfiles/kml/paddle/5.png"}},
{"type":"Feature","geometry":{"type":"Point","coordinates":[45.82630010973288,43.12824949410432,0]},"properties":{"name":"70th Guards Motor Rifle Regiment","description":"unit 71718\n\nT-72B3, BMP-2, 2S19 Msta-S, 9K35 Strela-10","styleUrl":"#m_ylw-pushpin8","icon-scale":1.1,"icon-offset":[32,1],"icon-offset-units":["pixels","pixels"],"icon":"http://maps.google.com/mapfiles/kml/paddle/5.png"}},
{"type":"Feature","geometry":{"type":"Point","coordinates":[45.52255236972614,43.58290725399912,0]},"properties":{"name":"71st Guards Motor Rifle Regiment","description":"unit 16544\n\nT-72B3, BTR-80/82A, 2S19 Msta-S, 9K35 Strela-10","styleUrl":"#m_ylw-pushpin8","icon-scale":1.1,"icon-offset":[32,1],"icon-offset-units":["pixels","pixels"],"icon":"http://maps.google.com/mapfiles/kml/paddle/5.png"}},
{"type":"Feature","geometry":{"type":"Point","coordinates":[45.6434020338643,42.84160714939712,0]},"properties":{"name":"291st Guards Motor Rifle Regiment","description":"unit 65384\n\nBTR-82A, BTR-80, 2S1 Gvozdika, 2B14 Podnos","styleUrl":"#m_ylw-pushpin124","icon-scale":1.1,"icon-offset":[32,1],"icon-offset-units":["pixels","pixels"],"icon":"http://maps.google.com/mapfiles/kml/paddle/5.png"}},
{"type":"Feature","geometry":{"type":"Point","coordinates":[45.76401166328925,43.3015491038426,0]},"properties":{"name":"Separate Tank Battalion","description":"T-72B3","styleUrl":"#m_ylw-pushpin31","icon-scale":1.1,"icon-offset":[32,1],"icon-offset-units":["pixels","pixels"],"icon":"http://maps.google.com/mapfiles/kml/paddle/5.png"}},
{"type":"Feature","geometry":{"type":"Point","coordinates":[45.82422200128852,43.12193204408774,0]},"properties":{"name":"50th Guards Self-Propelled Artillery Regiment","description":"unit 53185\n\n2S19 Msta-S/2S19лю1 Msta-SM, 2B26 Grad","styleUrl":"#m_ylw-pushpin8","icon-scale":1.1,"icon-offset":[32,1],"icon-offset-units":["pixels","pixels"],"icon":"http://maps.google.com/mapfiles/kml/paddle/5.png"}},
{"type":"Feature","geometry":{"type":"Point","coordinates":[45.76349207657996,43.30022048883525,0]},"properties":{"name":"245th Separate Anti-Aircraft Missile Division","description":"unit 81510\n\n9K330 Tor","styleUrl":"#m_ylw-pushpin31","icon-scale":1.1,"icon-offset":[32,1],"icon-offset-units":["pixels","pixels"],"icon":"http://maps.google.com/mapfiles/kml/paddle/5.png"}},
{"type":"Feature","geometry":{"type":"Point","coordinates":[45.77319536480748,43.29151328326306,0]},"properties":{"name":"417th Separate Reconnaissance Battalion","description":"unit 13242","styleUrl":"#m_ylw-pushpin31","icon-scale":1.1,"icon-offset":[32,1],"icon-offset-units":["pixels","pixels"],"icon":"http://maps.google.com/mapfiles/kml/paddle/5.png"}},
{"type":"Feature","geometry":{"type":"Point","coordinates":[45.7647304371628,43.30091427970954,0]},"properties":{"name":"378th Separate Communications Battalion","description":"unit 93987","styleUrl":"#m_ylw-pushpin31","icon-scale":1.1,"icon-offset":[32,1],"icon-offset-units":["pixels","pixels"],"icon":"http://maps.google.com/mapfiles/kml/paddle/5.png"}},
{"type":"Feature","geometry":{"type":"Point","coordinates":[45.75220894976226,43.30391620646465,0]},"properties":{"name":"539th Separate Engineer-Sapper Battalion","description":"unit 33952","styleUrl":"#m_ylw-pushpin31","icon-scale":1.1,"icon-offset":[32,1],"icon-offset-units":["pixels","pixels"],"icon":"http://maps.google.com/mapfiles/kml/paddle/5.png"}},
{"type":"Feature","geometry":{"type":"Point","coordinates":[45.80102925030997,43.30361129126779,0]},"properties":{"name":"474th Separate Logistics Battalion","description":"unit 43108","styleUrl":"#m_ylw-pushpin31","icon-scale":1.1,"icon-offset":[32,1],"icon-offset-units":["pixels","pixels"],"icon":"http://maps.google.com/mapfiles/kml/paddle/5.png"}},
{"type":"Feature","geometry":{"type":"Point","coordinates":[45.82355371586559,43.12367343397244,0]},"properties":{"name":"106th Separate Medical Battalion","description":"unit 73615","styleUrl":"#m_ylw-pushpin31","icon-scale":1.1,"icon-offset":[32,1],"icon-offset-units":["pixels","pixels"],"icon":"http://maps.google.com/mapfiles/kml/paddle/5.png"}},
{"type":"Feature","geometry":{"type":"Point","coordinates":[45.74760082379983,43.30375540438091,0]},"properties":{"name":"150th Separate Anti-Tank Artillery Division","description":"unit 24566","styleUrl":"#m_ylw-pushpin31","icon-scale":1.1,"icon-offset":[32,1],"icon-offset-units":["pixels","pixels"],"icon":"http://maps.google.com/mapfiles/kml/paddle/5.png"}},
{"type":"Feature","geometry":{"type":"Point","coordinates":[45.75554081142322,43.30121072617708,0]},"properties":{"name":"42nd Guards Motor Rifle Division HQ","description":"unit 27777","styleUrl":"#msn_569","label-scale":1.2,"icon-scale":1.1,"icon-offset":[32,1],"icon-offset-units":["pixels","pixels"],"icon":"http://maps.google.com/mapfiles/kml/paddle/5.png"}},
{"type":"Feature","geometry":{"type":"Point","coordinates":[44.72865892607773,43.04006071308609,0]},"properties":{"name":"19th Separate Motor Rifle Brigade","description":"unit 20634\n\nT-90A, BMP-3, 2S19 Msta-S, 9K330 Tor","styleUrl":"#m_ylw-pushpin05","icon-scale":1.1,"icon-offset":[32,1],"icon-offset-units":["pixels","pixels"],"icon":"http://maps.google.com/mapfiles/kml/paddle/5.png"}},
{"type":"Feature","geometry":{"type":"Point","coordinates":[47.08843374763058,42.83015512917716,0]},"properties":{"name":"136th Separate Guards Motor Rifle Brigade","description":"unit 63354\n\nT-90A, BMP-3, 2S3 Akatsiya, 9A331 Tor-M1","styleUrl":"#m_ylw-pushpin30","icon-scale":1.1,"icon-offset":[32,1],"icon-offset-units":["pixels","pixels"],"icon":"http://maps.google.com/mapfiles/kml/paddle/5.png"}},
{"type":"Feature","geometry":{"type":"Point","coordinates":[44.61348733766814,43.77617178316745,0]},"properties":{"name":"12th Missile Brigade","description":"unit 25788\n\n9K720 Iskander-M","styleUrl":"#msn_522","icon-scale":1.1,"icon-offset":[32,1],"icon-offset-units":["pixels","pixels"],"icon":"http://maps.google.com/mapfiles/kml/paddle/5.png"}},
{"type":"Feature","geometry":{"type":"Point","coordinates":[44.67752908453135,43.00416186570361,0]},"properties":{"name":"58th Combined Arms Army HQ","description":"unit 47084","styleUrl":"#msn_541","label-scale":1.3,"icon-scale":1.1,"icon-offset":[32,1],"icon-offset-units":["pixels","pixels"],"icon":"http://maps.google.com/mapfiles/kml/paddle/5.png"}},
{"type":"Feature","geometry":{"type":"Point","coordinates":[43.829035797435,40.80551438781074,0]},"properties":{"name":"/MB 102nd Military Base","description":"unit 04436\n\nT-72B, BMP-2, BM-21 Grad, 2S5 Giatsint-S, 2S1 Gvozdika, BTR-70/80","styleUrl":"#m_ylw-pushpin7","icon-scale":1.1,"icon-offset":[32,1],"icon-offset-units":["pixels","pixels"],"icon":"http://maps.google.com/mapfiles/kml/paddle/5.png"}},
{"type":"Feature","geometry":{"type":"Point","coordinates":[43.81745982702526,40.77766803500872,0]},"properties":{"name":"/MB 102nd Military Base","description":"unit 04436\n\nT-72B, BMP-2, BM-21 Grad, 2S5 Giatsint-S, 2S1 Gvozdika, BTR-70/80","styleUrl":"#m_ylw-pushpin7","icon-scale":1.1,"icon-offset":[32,1],"icon-offset-units":["pixels","pixels"],"icon":"http://maps.google.com/mapfiles/kml/paddle/5.png"}},
{"type":"Feature","geometry":{"type":"Point","coordinates":[43.8271579629693,40.80856819831727,0]},"properties":{"name":"988th Anti-Aircraft Missile Regiment","description":"unit 81594\n\nS-300V4, 9K37M1-2 Buk-M1-2","styleUrl":"#m_ylw-pushpin7","icon-scale":1.1,"icon-offset":[32,1],"icon-offset-units":["pixels","pixels"],"icon":"http://maps.google.com/mapfiles/kml/paddle/5.png"}},
{"type":"Feature","geometry":{"type":"Point","coordinates":[43.82514473882816,40.78996971624548,0]},"properties":{"name":"102nd Military Base HQ","description":"unit 04436","styleUrl":"#msn_55","label-scale":1.1,"icon-scale":1.1,"icon-offset":[32,1],"icon-offset-units":["pixels","pixels"],"icon":"http://maps.google.com/mapfiles/kml/paddle/5.png"}},
{"type":"Feature","geometry":{"type":"Point","coordinates":[44.47348145816947,40.12619045203177,0]},"properties":{"name":"3624th Air Base","description":"unit 63530","styleUrl":"#msn_51002","icon-opacity":1,"icon-color":"#00aeff","icon-scale":1.1,"icon-offset":[32,1],"icon-offset-units":["pixels","pixels"],"icon":"http://maps.google.com/mapfiles/kml/paddle/5.png"}},
{"type":"Feature","geometry":{"type":"Point","coordinates":[37.72744993394306,44.73358563550192,0]},"properties":{"name":"7th Guards Air Assault Division HQ","description":"unit 61756","styleUrl":"#msn_510","label-scale":1.2,"icon-scale":1.1,"icon-offset":[32,1],"icon-offset-units":["pixels","pixels"],"icon":"http://maps.google.com/mapfiles/kml/paddle/5.png"}},
{"type":"Feature","geometry":{"type":"Point","coordinates":[37.73928514628584,44.73505398680963,0]},"properties":{"name":"108th Guards Air Assault Regiment","description":"unit 42091\n\nBMD-2, BTR-D, BTR-ZD Skrezhet, 2S9 Nona-S","styleUrl":"#msn_5006","icon-scale":1.1,"icon-offset":[32,1],"icon-offset-units":["pixels","pixels"],"icon":"http://maps.google.com/mapfiles/kml/paddle/5.png"}},
{"type":"Feature","geometry":{"type":"Point","coordinates":[42.02485370403375,45.0313383543524,0]},"properties":{"name":"247th Guards Air Assault Regiment","description":"unit 54801\n\nBMD-2, BTR-D, BTR-ZD Skrezhet, 2S9 Nona-S","styleUrl":"#m_ylw-pushpin02","icon-scale":1.1,"icon-offset":[32,1],"icon-offset-units":["pixels","pixels"],"icon":"http://maps.google.com/mapfiles/kml/paddle/5.png"}},
{"type":"Feature","geometry":{"type":"Point","coordinates":[35.37996081809452,45.06082195069844,0]},"properties":{"name":"171st Separate Air Assault Battalion","description":"unit 81505","styleUrl":"#msn_5415","icon-scale":1.1,"icon-offset":[32,1],"icon-offset-units":["pixels","pixels"],"icon":"http://maps.google.com/mapfiles/kml/paddle/5.png"}},
{"type":"Feature","geometry":{"type":"Point","coordinates":[37.333728399258,44.89517664600734,0]},"properties":{"name":"1141st Guards Artillery Regiment","description":"unit 40515\n\nD-30, 2S9 Nona-S","styleUrl":"#m_ylw-pushpin35","icon-scale":1.1,"icon-offset":[32,1],"icon-offset-units":["pixels","pixels"],"icon":"http://maps.google.com/mapfiles/kml/paddle/5.png"}},
{"type":"Feature","geometry":{"type":"Point","coordinates":[37.72497304146596,44.73395912094635,0]},"properties":{"name":"3rd Separate Anti-Aircraft Missile Regiment","description":"unit 94021\n\n9K35 Strela-10, BTR-ZD Skrezhet","styleUrl":"#m_ylw-pushpin11","icon-scale":1.1,"icon-offset":[32,1],"icon-offset-units":["pixels","pixels"],"icon":"http://maps.google.com/mapfiles/kml/paddle/5.png"}},
{"type":"Feature","geometry":{"type":"Point","coordinates":[37.99276475066271,44.95789119222417,0]},"properties":{"name":"3rd Guards Fighter Aviation Regiment","description":"unit 75386\n\nSu-27P, Su-27SM3, Su-27UP, Su-30M2","styleUrl":"#msn_524","icon-opacity":1,"icon-color":"#009dff","icon-scale":1.1,"icon-offset":[32,1],"icon-offset-units":["pixels","pixels"],"icon":"http://maps.google.com/mapfiles/kml/paddle/5.png"}},
{"type":"Feature","geometry":{"type":"Point","coordinates":[39.64957688278668,47.27229246402558,0]},"properties":{"name":"30th Separate Transport Mixed Aviation Regiment","description":"unit 41497\n\nAn-12BK, An-26, Il-20M, Mi-24P, Mi-26T, Mi-26","styleUrl":"#msn_503","icon-opacity":1,"icon-color":"#009dff","icon-scale":1.1,"icon-offset":[32,1],"icon-offset-units":["pixels","pixels"],"icon":"http://maps.google.com/mapfiles/kml/paddle/5.png"}},
{"type":"Feature","geometry":{"type":"Point","coordinates":[40.29614401280126,48.95249470532464,0]},"properties":{"name":"31st Guards Fighter Aviation Regiment","description":"unit 75391\n\nSu-30SM, MiG-29A, MiG-29S","styleUrl":"#msn_559","icon-opacity":1,"icon-color":"#0084ff","icon-scale":1.1,"icon-offset":[32,1],"icon-offset-units":["pixels","pixels"],"icon":"http://maps.google.com/mapfiles/kml/paddle/5.png"}},
{"type":"Feature","geometry":{"type":"Point","coordinates":[44.01057783623779,44.83425742883108,0]},"properties":{"name":"368th Assault Aviation Regiment","description":"unit 75388\n\nSu-25SM, Su-25SM3","styleUrl":"#msn_5132","icon-opacity":1,"icon-color":"#009dff","icon-scale":1.1,"icon-offset":[32,1],"icon-offset-units":["pixels","pixels"],"icon":"http://maps.google.com/mapfiles/kml/paddle/5.png"}},
{"type":"Feature","geometry":{"type":"Point","coordinates":[41.77922621585627,48.31464685746072,0]},"properties":{"name":"559th Bomber Aviation Regiment","description":"unit 75392\n\nSu-34","styleUrl":"#msn_577","icon-opacity":1,"icon-color":"#00b3ff","icon-scale":1.1,"icon-offset":[32,1],"icon-offset-units":["pixels","pixels"],"icon":"http://maps.google.com/mapfiles/kml/paddle/5.png"}},
{"type":"Feature","geometry":{"type":"Point","coordinates":[43.78643509702847,48.63894987736194,0]},"properties":{"name":"11th Separate Mixed Aviation Regiment","description":"unit 77978\n\nSu-24MP, Su-24M","styleUrl":"#msn_5611","icon-opacity":1,"icon-color":"#0088ff","icon-scale":1.1,"icon-offset":[32,1],"icon-offset-units":["pixels","pixels"],"icon":"http://maps.google.com/mapfiles/kml/paddle/5.png"}},
{"type":"Feature","geometry":{"type":"Point","coordinates":[38.23334268528674,46.05701959397646,0]},"properties":{"name":"960th Assault Aviation Regiment","description":"unit 75387\n\nSu-25SM3, Su-25SM","styleUrl":"#m_ylw-pushpin18","icon-opacity":1,"icon-color":"#00b3ff","icon-scale":1.1,"icon-offset":[32,1],"icon-offset-units":["pixels","pixels"],"icon":"http://maps.google.com/mapfiles/kml/paddle/5.png"}},
{"type":"Feature","geometry":{"type":"Point","coordinates":[33.98197101499976,45.12015958618682,0]},"properties":{"name":"37th Mixed Aviation Regiment","description":"unit 46451\n\nSu-24M, Su-24MR, Su-25SM","styleUrl":"#msn_5110","icon-opacity":1,"icon-color":"#0099ff","icon-scale":1.1,"icon-offset":[32,1],"icon-offset-units":["pixels","pixels"],"icon":"http://maps.google.com/mapfiles/kml/paddle/5.png"}},
{"type":"Feature","geometry":{"type":"Point","coordinates":[33.55178272535079,44.67076222887852,0]},"properties":{"name":"38th Fighter Aviation Regiment HQ","description":"unit 80159\n\nSu-27SM, Su-27P, Su-30M2","styleUrl":"#msn_528","icon-opacity":1,"icon-color":"#009dff","icon-scale":1.1,"icon-offset":[32,1],"icon-offset-units":["pixels","pixels"],"icon":"http://maps.google.com/mapfiles/kml/paddle/5.png"}},
{"type":"Feature","geometry":{"type":"Point","coordinates":[33.56620689568872,44.68654230023934,0]},"properties":{"name":"38th Fighter Aviation Regiment","description":"unit 80159\n\nSu-27SM, Su-27P, Su-30M2","styleUrl":"#msn_5118","icon-opacity":1,"icon-color":"#009dff","icon-scale":1.1,"icon-offset":[32,1],"icon-offset-units":["pixels","pixels"],"icon":"http://maps.google.com/mapfiles/kml/paddle/5.png"}},
{"type":"Feature","geometry":{"type":"Point","coordinates":[34.41776751546678,45.70262466131527,0]},"properties":{"name":"39th Helicopter Regiment","description":"unit 46453\n\nMi-35M, Ka-52, Mi-28N, Mi-8AMTSh","styleUrl":"#msn_51011","icon-opacity":1,"icon-color":"#00a6ff","icon-scale":1.1,"icon-offset":[32,1],"icon-offset-units":["pixels","pixels"],"icon":"http://maps.google.com/mapfiles/kml/paddle/5.png"}},
{"type":"Feature","geometry":{"type":"Point","coordinates":[33.575212714459,44.58062336826961,0]},"properties":{"name":"12th Anti-Aircraft Missile Regiment\n HQ","description":"unit 85702","styleUrl":"#m_ylw-pushpin08","icon-opacity":1,"icon-color":"#0099ff","icon-scale":1.1,"icon-offset":[32,1],"icon-offset-units":["pixels","pixels"],"icon":"http://maps.google.com/mapfiles/kml/paddle/5.png"}},
{"type":"Feature","geometry":{"type":"Point","coordinates":[33.43345468015685,44.5442126201727,0]},"properties":{"name":"/R 12th Anti-Aircraft Missile Regiment","description":"unit 85702\n\nS-400","styleUrl":"#msn_547","icon-opacity":1,"icon-color":"#0084ff","icon-scale":1.1,"icon-offset":[32,1],"icon-offset-units":["pixels","pixels"],"icon":"http://maps.google.com/mapfiles/kml/paddle/5.png"}},
{"type":"Feature","geometry":{"type":"Point","coordinates":[33.26054821623156,45.2187285198502,0]},"properties":{"name":"/R 12th Anti-Aircraft Missile Regiment","description":"unit 85702\n\nS-400","styleUrl":"#msn_547","icon-opacity":1,"icon-color":"#0084ff","icon-scale":1.1,"icon-offset":[32,1],"icon-offset-units":["pixels","pixels"],"icon":"http://maps.google.com/mapfiles/kml/paddle/5.png"}},
{"type":"Feature","geometry":{"type":"Point","coordinates":[34.40688348445893,45.68779296217496,0]},"properties":{"name":"/R 12th Anti-Aircraft Missile Regiment","description":"unit 85702\n\nS-400","styleUrl":"#msn_547","icon-opacity":1,"icon-color":"#0084ff","icon-scale":1.1,"icon-offset":[32,1],"icon-offset-units":["pixels","pixels"],"icon":"http://maps.google.com/mapfiles/kml/paddle/5.png"}},
{"type":"Feature","geometry":{"type":"Point","coordinates":[35.38346907498486,45.05046062419542,0]},"properties":{"name":"18th Guards Anti-Aircraft Missile Regiment\n HQ","description":"unit 85388","styleUrl":"#msn_547","icon-opacity":1,"icon-color":"#0084ff","icon-scale":1.1,"icon-offset":[32,1],"icon-offset-units":["pixels","pixels"],"icon":"http://maps.google.com/mapfiles/kml/paddle/5.png"}},
{"type":"Feature","geometry":{"type":"Point","coordinates":[35.39866503745245,45.01006583270032,0]},"properties":{"name":"/R 18th Guards Anti-Aircraft Missile Regiment","description":"unit 85388\n\nS-400","styleUrl":"#msn_504","icon-opacity":1,"icon-color":"#0099ff","icon-scale":1.1,"icon-offset":[32,1],"icon-offset-units":["pixels","pixels"],"icon":"http://maps.google.com/mapfiles/kml/paddle/5.png"}},
{"type":"Feature","geometry":{"type":"Point","coordinates":[36.3630553553691,45.32296044190597,0]},"properties":{"name":"/R 18th Guards Anti-Aircraft Missile Regiment","description":"unit 85388\n\nS-300PM","styleUrl":"#msn_504","icon-opacity":1,"icon-color":"#0099ff","icon-scale":1.1,"icon-offset":[32,1],"icon-offset-units":["pixels","pixels"],"icon":"http://maps.google.com/mapfiles/kml/paddle/5.png"}},
{"type":"Feature","geometry":{"type":"Point","coordinates":[32.52182954124104,45.34519441737568,0]},"properties":{"name":"/R 3rd Radio-Technical Regiment","description":"unit 85683-E","styleUrl":"#m_ylw-pushpin001","icon-opacity":1,"icon-color":"#00a6ff","icon-scale":1.1,"icon-offset":[32,1],"icon-offset-units":["pixels","pixels"],"icon":"http://maps.google.com/mapfiles/kml/paddle/5.png"}},
{"type":"Feature","geometry":{"type":"Point","coordinates":[33.32057108200581,45.20049817033204,0]},"properties":{"name":"/R 3rd Radio-Technical Regiment","description":"unit 85683","styleUrl":"#m_ylw-pushpin001","icon-opacity":1,"icon-color":"#00a6ff","icon-scale":1.1,"icon-offset":[32,1],"icon-offset-units":["pixels","pixels"],"icon":"http://maps.google.com/mapfiles/kml/paddle/5.png"}},
{"type":"Feature","geometry":{"type":"Point","coordinates":[33.43564607944244,44.55098323484589,0]},"properties":{"name":"/R 3rd Radio-Technical Regiment","open":"1","description":"unit 85683","styleUrl":"#msn_5211","icon-opacity":1,"icon-color":"#00a6ff","icon-scale":1.1,"icon-offset":[32,1],"icon-offset-units":["pixels","pixels"],"icon":"http://maps.google.com/mapfiles/kml/paddle/5.png"}},
{"type":"Feature","geometry":{"type":"Point","coordinates":[34.38373317750396,44.63956882317815,0]},"properties":{"name":"/R 3rd Radio-Technical Regiment","open":"1","description":"unit 85683","styleUrl":"#msn_5311","icon-opacity":1,"icon-color":"#00a6ff","icon-scale":1.1,"icon-offset":[32,1],"icon-offset-units":["pixels","pixels"],"icon":"http://maps.google.com/mapfiles/kml/paddle/5.png"}},
{"type":"Feature","geometry":{"type":"Point","coordinates":[33.51339347092477,44.53628709566445,0]},"properties":{"name":"31st Air Defence Division HQ","description":"unit 03121","styleUrl":"#m_ylw-pushpin24","icon-opacity":1,"icon-color":"#00aeff","icon-scale":1.1,"icon-offset":[32,1],"icon-offset-units":["pixels","pixels"],"icon":"http://maps.google.com/mapfiles/kml/paddle/5.png"}},
{"type":"Feature","geometry":{"type":"Point","coordinates":[39.60917631249254,47.08740330404109,0]},"properties":{"name":"1536th Anti-Aircraft Missile Regiment \nHQ","description":"unit 48514","styleUrl":"#msn_5413","icon-opacity":1,"icon-color":"#00a6ff","icon-scale":1.1,"icon-offset":[32,1],"icon-offset-units":["pixels","pixels"],"icon":"http://maps.google.com/mapfiles/kml/paddle/5.png"}},
{"type":"Feature","geometry":{"type":"Point","coordinates":[39.33411888634082,46.96695156312936,0]},"properties":{"name":"/R 1536th Anti-Aircraft Missile Regiment","description":"unit 48514\n\nS-300PM","styleUrl":"#msn_5413","icon-opacity":1,"icon-color":"#00a6ff","icon-scale":1.1,"icon-offset":[32,1],"icon-offset-units":["pixels","pixels"],"icon":"http://maps.google.com/mapfiles/kml/paddle/5.png"}},
{"type":"Feature","geometry":{"type":"Point","coordinates":[39.44559444891139,47.29019954634901,0]},"properties":{"name":"/R 1536th Anti-Aircraft Missile Regiment","description":"unit 48514\n\nS-300PM","styleUrl":"#msn_5413","icon-opacity":1,"icon-color":"#00a6ff","icon-scale":1.1,"icon-offset":[32,1],"icon-offset-units":["pixels","pixels"],"icon":"http://maps.google.com/mapfiles/kml/paddle/5.png"}},
{"type":"Feature","geometry":{"type":"Point","coordinates":[37.78133548825765,44.66679066855083,0]},"properties":{"name":"1537th Anti-Aircraft Missile Regiment\nHQ","description":"unit 26345","styleUrl":"#m_ylw-pushpin59","icon-opacity":1,"icon-color":"#0099ff","icon-scale":1.1,"icon-offset":[32,1],"icon-offset-units":["pixels","pixels"],"icon":"http://maps.google.com/mapfiles/kml/paddle/5.png"}},
{"type":"Feature","geometry":{"type":"Point","coordinates":[37.42122872643056,44.92245928944505,0]},"properties":{"name":"/R 1537th Anti-Aircraft Missile Regiment","description":"unit 26345\n\nS-400","styleUrl":"#m_ylw-pushpin59","icon-opacity":1,"icon-color":"#0099ff","icon-scale":1.1,"icon-offset":[32,1],"icon-offset-units":["pixels","pixels"],"icon":"http://maps.google.com/mapfiles/kml/paddle/5.png"}},
{"type":"Feature","geometry":{"type":"Point","coordinates":[37.78135914536838,44.6640084210042,0]},"properties":{"name":"/R 1537th Anti-Aircraft Missile Regiment","description":"unit 26345\n\nS-400","styleUrl":"#m_ylw-pushpin59","icon-opacity":1,"icon-color":"#0099ff","icon-scale":1.1,"icon-offset":[32,1],"icon-offset-units":["pixels","pixels"],"icon":"http://maps.google.com/mapfiles/kml/paddle/5.png"}},
{"type":"Feature","geometry":{"type":"Point","coordinates":[39.72728523431839,43.63533226552523,0]},"properties":{"name":"1721st Anti-Aircraft Missile Regiment\nHQ","description":"unit 11754","styleUrl":"#m_ylw-pushpin59","icon-opacity":1,"icon-color":"#0099ff","icon-scale":1.1,"icon-offset":[32,1],"icon-offset-units":["pixels","pixels"],"icon":"http://maps.google.com/mapfiles/kml/paddle/5.png"}},
{"type":"Feature","geometry":{"type":"Point","coordinates":[40.00477136564776,43.3887174738701,0]},"properties":{"name":"/R 1721st Anti-Aircraft Missile Regiment","description":"unit 11754\n\n9K37M1 Buk","styleUrl":"#m_ylw-pushpin59","icon-opacity":1,"icon-color":"#0099ff","icon-scale":1.1,"icon-offset":[32,1],"icon-offset-units":["pixels","pixels"],"icon":"http://maps.google.com/mapfiles/kml/paddle/5.png"}},
{"type":"Feature","geometry":{"type":"Point","coordinates":[47.96688501360127,46.41217823954631,0]},"properties":{"name":"339th Radio-Technical Regiment","description":"unit 03007","styleUrl":"#m_ylw-pushpin24","icon-opacity":1,"icon-color":"#00aeff","icon-scale":1.1,"icon-offset":[32,1],"icon-offset-units":["pixels","pixels"],"icon":"http://maps.google.com/mapfiles/kml/paddle/5.png"}},
{"type":"Feature","geometry":{"type":"Point","coordinates":[40.10647251189472,47.41170299078753,0]},"properties":{"name":"338th Radio-Technical Regiment HQ","description":"unit 40213","styleUrl":"#m_ylw-pushpin24","icon-opacity":1,"icon-color":"#00aeff","icon-scale":1.1,"icon-offset":[32,1],"icon-offset-units":["pixels","pixels"],"icon":"http://maps.google.com/mapfiles/kml/paddle/5.png"}},
{"type":"Feature","geometry":{"type":"Point","coordinates":[38.56719037332369,47.17314967407503,0]},"properties":{"name":"/R 338th Radio-Technical Regiment","description":"unit 40213-S","styleUrl":"#m_ylw-pushpin24","icon-opacity":1,"icon-color":"#00aeff","icon-scale":1.1,"icon-offset":[32,1],"icon-offset-units":["pixels","pixels"],"icon":"http://maps.google.com/mapfiles/kml/paddle/5.png"}},
{"type":"Feature","geometry":{"type":"Point","coordinates":[39.69376099486779,47.25091250678494,0]},"properties":{"name":"51st Air Defence Division HQ","description":"unit 42352","styleUrl":"#msn_5413","icon-opacity":1,"icon-color":"#00a6ff","icon-scale":1.1,"icon-offset":[32,1],"icon-offset-units":["pixels","pixels"],"icon":"http://maps.google.com/mapfiles/kml/paddle/5.png"}},
{"type":"Feature","geometry":{"type":"Point","coordinates":[44.47123991726063,40.12703428490839,0]},"properties":{"name":"3624th Air Base","description":"unit 63530\n\nMiG-29, Su-30SM, Mi-24P, Mi-8,","styleUrl":"#msn_52111","icon-opacity":1,"icon-color":"#0088ff","icon-scale":1.1,"icon-offset":[32,1],"icon-offset-units":["pixels","pixels"],"icon":"http://maps.google.com/mapfiles/kml/paddle/5.png"}},
{"type":"Feature","geometry":{"type":"Point","coordinates":[39.42134059458584,45.44640900998114,0]},"properties":{"name":"55th Separate Helicopter Regiment","description":"unit 35666\n\nMi-35M, Mi-28N, Mi-8AMTSh","styleUrl":"#msn_554","icon-opacity":1,"icon-color":"#009dff","icon-scale":1.1,"icon-offset":[32,1],"icon-offset-units":["pixels","pixels"],"icon":"http://maps.google.com/mapfiles/kml/paddle/5.png"}},
{"type":"Feature","geometry":{"type":"Point","coordinates":[40.37096900887698,46.8357292440359,0]},"properties":{"name":"16th Army Aviation Brigade","description":"unit 41767\n\nMi-8AMTSh, Mi-28N, Mi-8PP","styleUrl":"#m_ylw-pushpin12","icon-opacity":1,"icon-color":"#0099ff","icon-scale":1.1,"icon-offset":[32,1],"icon-offset-units":["pixels","pixels"],"icon":"http://maps.google.com/mapfiles/kml/paddle/5.png"}},
{"type":"Feature","geometry":{"type":"Point","coordinates":[44.02290244421209,44.82659806913281,0]},"properties":{"name":"487th Separate Helicopter Regiment","description":"unit 44936\n\nMi-35M, Mi-28N, Mi-8AMTSh, Mi-8MTV-5, Mi-8MTV-5-1, Forpost UAV","styleUrl":"#m_ylw-pushpin12","icon-opacity":1,"icon-color":"#0099ff","icon-scale":1.1,"icon-offset":[32,1],"icon-offset-units":["pixels","pixels"],"icon":"http://maps.google.com/mapfiles/kml/paddle/5.png"}},
{"type":"Feature","geometry":{"type":"Point","coordinates":[44.60798209609833,43.78276240614635,0]},"properties":{"name":"3661st Air Base","description":"unit 62467\n\nJoint use: Aerospace Forces (helicopters and UAVs of the 487th SHR and other units), aviation of the Rosgvardia and the FSB.","styleUrl":"#msn_5116","icon-opacity":1,"icon-color":"#00a6ff","icon-scale":1.1,"icon-offset":[32,1],"icon-offset-units":["pixels","pixels"],"icon":"http://maps.google.com/mapfiles/kml/paddle/5.png"}},
{"type":"Feature","geometry":{"type":"Point","coordinates":[40.10706005843858,47.41143437517446,0]},"properties":{"name":"214th Command and Control Center","description":"unit 65246","styleUrl":"#msn_577","icon-opacity":1,"icon-color":"#00b3ff","icon-scale":1.1,"icon-offset":[32,1],"icon-offset-units":["pixels","pixels"],"icon":"http://maps.google.com/mapfiles/kml/paddle/5.png"}},
{"type":"Feature","geometry":{"type":"Point","coordinates":[33.55917697424311,44.62371849351761,0]},"properties":{"name":"166th Small Missile Ship Division","styleUrl":"#msn_5008","icon-opacity":1,"icon-color":"#00ff1d","icon-scale":1.1,"icon-offset":[32,1],"icon-offset-units":["pixels","pixels"],"icon":"http://maps.google.com/mapfiles/kml/paddle/5.png"}},
{"type":"Feature","geometry":{"type":"Point","coordinates":[33.49965066962505,44.60804598440708,0]},"properties":{"name":"295th Missile Ship Division","styleUrl":"#msn_5008","icon-opacity":1,"icon-color":"#00ff1d","icon-scale":1.1,"icon-offset":[32,1],"icon-offset-units":["pixels","pixels"],"icon":"http://maps.google.com/mapfiles/kml/paddle/5.png"}},
{"type":"Feature","geometry":{"type":"Point","coordinates":[33.47600207358759,44.60643829183677,0]},"properties":{"name":"68th Water Area Protection Brigade HQ","description":"unit 26977","styleUrl":"#msn_5119","icon-opacity":1,"icon-color":"#00ff1d","icon-scale":1.1,"icon-offset":[32,1],"icon-offset-units":["pixels","pixels"],"icon":"http://maps.google.com/mapfiles/kml/paddle/5.png"}},
{"type":"Feature","geometry":{"type":"Point","coordinates":[33.47016674632373,44.60417741392844,0]},"properties":{"name":"149th Tactical Group","styleUrl":"#msn_540","icon-opacity":1,"icon-color":"#00ff1d","icon-scale":1.1,"icon-offset":[32,1],"icon-offset-units":["pixels","pixels"],"icon":"http://maps.google.com/mapfiles/kml/paddle/5.png"}},
{"type":"Feature","geometry":{"type":"Point","coordinates":[33.47166558899759,44.60338329152073,0]},"properties":{"name":"150th Tactical Group","styleUrl":"#msn_5009","icon-opacity":1,"icon-color":"#00ff1d","icon-scale":1.1,"icon-offset":[32,1],"icon-offset-units":["pixels","pixels"],"icon":"http://maps.google.com/mapfiles/kml/paddle/5.png"}},
{"type":"Feature","geometry":{"type":"Point","coordinates":[33.5281057113769,44.61441245909836,0]},"properties":{"name":"/B 197th Landing Ship Brigade","description":"unit 72136","styleUrl":"#msn_5205","icon-opacity":1,"icon-color":"#00ff1d","icon-scale":1.1,"icon-offset":[32,1],"icon-offset-units":["pixels","pixels"],"icon":"http://maps.google.com/mapfiles/kml/paddle/5.png"}},
{"type":"Feature","geometry":{"type":"Point","coordinates":[33.5555568568469,44.61344707192954,0]},"properties":{"name":"/B 197th Landing Ship Brigade","description":"unit 72136","styleUrl":"#msn_5205","icon-opacity":1,"icon-color":"#00ff1d","icon-scale":1.1,"icon-offset":[32,1],"icon-offset-units":["pixels","pixels"],"icon":"http://maps.google.com/mapfiles/kml/paddle/5.png"}},
{"type":"Feature","geometry":{"type":"Point","coordinates":[33.51530002365526,44.62999383443209,0]},"properties":{"name":"102nd PDSS Counteraction Special Purpose Detachment","open":"1","description":"unit 27203","styleUrl":"#msn_536","icon-opacity":1,"icon-color":"#00ff11","icon-scale":1.1,"icon-offset":[32,1],"icon-offset-units":["pixels","pixels"],"icon":"http://maps.google.com/mapfiles/kml/paddle/5.png"}},
{"type":"Feature","geometry":{"type":"Point","coordinates":[37.82813368990392,44.71891201202251,0]},"properties":{"name":"170th Minesweeper Division","styleUrl":"#msn_5205","icon-opacity":1,"icon-color":"#00ff1d","icon-scale":1.1,"icon-offset":[32,1],"icon-offset-units":["pixels","pixels"],"icon":"http://maps.google.com/mapfiles/kml/paddle/5.png"}},
{"type":"Feature","geometry":{"type":"Point","coordinates":[37.83103330952202,44.71906463554537,0]},"properties":{"name":"181st Anti-Submarine Ship Division","styleUrl":"#msn_5153","icon-opacity":1,"icon-color":"#00ff11","icon-scale":1.1,"icon-offset":[32,1],"icon-offset-units":["pixels","pixels"],"icon":"http://maps.google.com/mapfiles/kml/paddle/5.png"}},
{"type":"Feature","geometry":{"type":"Point","coordinates":[37.83145855062946,44.71638756085738,0]},"properties":{"name":"4th Separate Submarine Brigade","description":"unit 95200","styleUrl":"#msn_5205","icon-opacity":1,"icon-color":"#00ff1d","icon-scale":1.1,"icon-offset":[32,1],"icon-offset-units":["pixels","pixels"],"icon":"http://maps.google.com/mapfiles/kml/paddle/5.png"}},
{"type":"Feature","geometry":{"type":"Point","coordinates":[37.83426481204009,44.72033218560959,0]},"properties":{"name":"136th PDSS Counteraction Special Purpose Detachment","description":"unit 75976","styleUrl":"#msn_5120","icon-opacity":1,"icon-color":"#00ff1d","icon-scale":1.1,"icon-offset":[32,1],"icon-offset-units":["pixels","pixels"],"icon":"http://maps.google.com/mapfiles/kml/paddle/5.png"}},
{"type":"Feature","geometry":{"type":"Point","coordinates":[37.82478439045548,44.7201456797367,0]},"properties":{"name":"314th Rescue Ship Detachment","styleUrl":"#msn_5205","icon-opacity":1,"icon-color":"#00ff1d","icon-scale":1.1,"icon-offset":[32,1],"icon-offset-units":["pixels","pixels"],"icon":"http://maps.google.com/mapfiles/kml/paddle/5.png"}},
{"type":"Feature","geometry":{"type":"Point","coordinates":[34.33154754226052,44.83863645487494,0]},"properties":{"name":"/B 126th Separate Coastal Defense Brigade","description":"unit 12676\n\nT-72B, BTR-80, D-30, BM-21 Grad","styleUrl":"#msn_519","icon-scale":1.1,"icon-offset":[32,1],"icon-offset-units":["pixels","pixels"],"icon":"http://maps.google.com/mapfiles/kml/paddle/5.png"}},
{"type":"Feature","geometry":{"type":"Point","coordinates":[34.32175332864551,44.84941775586512,0]},"properties":{"name":"/B 126th Separate Coastal Defense Brigade","open":"1","description":"unit 12676\n\nT-72B, BTR-80, D-30, BM-21 Grad","styleUrl":"#msn_519","icon-scale":1.1,"icon-offset":[32,1],"icon-offset-units":["pixels","pixels"],"icon":"http://maps.google.com/mapfiles/kml/paddle/5.png"}},
{"type":"Feature","geometry":{"type":"Point","coordinates":[34.08553980370144,44.95030630551314,0]},"properties":{"name":"/R 8th Separate Artillery Regiment","description":"unit 87714\n\nBM-21 Grad, 2B26 Grad, 9P140 Uragan, 2S19 Msta-S","styleUrl":"#msn_519","icon-scale":1.1,"icon-offset":[32,1],"icon-offset-units":["pixels","pixels"],"icon":"http://maps.google.com/mapfiles/kml/paddle/5.png"}},
{"type":"Feature","geometry":{"type":"Point","coordinates":[34.32030939091245,44.84872393974992,0]},"properties":{"name":"/R 8th Separate Artillery Regiment","open":"1","description":"unit 87714\n\nBM-21 Grad, 2B26 Grad, 9P140 Uragan, 2S19 Msta-S","styleUrl":"#msn_519","icon-scale":1.1,"icon-offset":[32,1],"icon-offset-units":["pixels","pixels"],"icon":"http://maps.google.com/mapfiles/kml/paddle/5.png"}},
{"type":"Feature","geometry":{"type":"Point","coordinates":[33.53774497642677,44.60255209880664,0]},"properties":{"name":"127th Separate Reconnaissance Brigade","description":"unit 67606","styleUrl":"#msn_5200","icon-scale":1.1,"icon-offset":[32,1],"icon-offset-units":["pixels","pixels"],"icon":"http://maps.google.com/mapfiles/kml/paddle/5.png"}},
{"type":"Feature","geometry":{"type":"Point","coordinates":[33.86333007777353,44.76095813910261,0]},"properties":{"name":"/B 133rd Separate Logistics Brigade","description":"unit 73998","styleUrl":"#msn_521","icon-scale":1.1,"icon-offset":[32,1],"icon-offset-units":["pixels","pixels"],"icon":"http://maps.google.com/mapfiles/kml/paddle/5.png"}},
{"type":"Feature","geometry":{"type":"Point","coordinates":[33.8678886798682,44.75473955586963,0]},"properties":{"name":"/B 133rd Separate Logistics Brigade","open":"1","description":"unit 73998","styleUrl":"#msn_521","icon-scale":1.1,"icon-offset":[32,1],"icon-offset-units":["pixels","pixels"],"icon":"http://maps.google.com/mapfiles/kml/paddle/5.png"}},
{"type":"Feature","geometry":{"type":"Point","coordinates":[33.60430851954953,44.64496566039435,0]},"properties":{"name":"4th Separate NBC Protection Regiment","description":"unit 86862","styleUrl":"#msn_531","icon-scale":1.1,"icon-offset":[32,1],"icon-offset-units":["pixels","pixels"],"icon":"http://maps.google.com/mapfiles/kml/paddle/5.png"}},
{"type":"Feature","geometry":{"type":"Point","coordinates":[33.53807355707116,44.63435616969208,0]},"properties":{"name":"1096th Separate Anti-Aircraft Missile Regiment","description":"unit 83576\n\n9K317 Buk-M2, 9K33 Osa","styleUrl":"#msn_533","icon-scale":1.1,"icon-offset":[32,1],"icon-offset-units":["pixels","pixels"],"icon":"http://maps.google.com/mapfiles/kml/paddle/5.png"}},
{"type":"Feature","geometry":{"type":"Point","coordinates":[33.41615671515024,44.56249174250047,0]},"properties":{"name":"/B 810th Separate Guards Naval Infantry Brigade","description":"unit 13140 \n\nBTR-82A, BMP-2, 2S1 Gvozdika, 9K35 Strela-10","styleUrl":"#msn_5011","icon-opacity":1,"icon-color":"#00ff11","icon-scale":1.1,"icon-offset":[32,1],"icon-offset-units":["pixels","pixels"],"icon":"http://maps.google.com/mapfiles/kml/paddle/5.png"}},
{"type":"Feature","geometry":{"type":"Point","coordinates":[37.50481853408025,45.23807077922799,0]},"properties":{"name":"/B 810th Separate Guards Naval Infantry Brigade","description":"unit 13140 \n\nBTR-82A, BMP-2, 2S1 Gvozdika, 9K35 Strela-10","styleUrl":"#msn_5011","icon-opacity":1,"icon-color":"#00ff11","icon-scale":1.1,"icon-offset":[32,1],"icon-offset-units":["pixels","pixels"],"icon":"http://maps.google.com/mapfiles/kml/paddle/5.png"}},
{"type":"Feature","geometry":{"type":"Point","coordinates":[37.30351081708169,45.08819145283051,0]},"properties":{"name":"11th Coastal Missile-Artillery Brigade","open":"1","description":"unit 00916\n\n3K60 Bal-E, K300P Bastion-P","styleUrl":"#m_ylw-pushpin1","icon-scale":1.1,"icon-offset":[32,1],"icon-offset-units":["pixels","pixels"],"icon":"http://maps.google.com/mapfiles/kml/paddle/5.png"}},
{"type":"Feature","geometry":{"type":"Point","coordinates":[33.49928231859558,44.56646662303598,0]},"properties":{"name":"/R 15th Separate Coastal Missile-Artillery Brigade","description":"unit 80365\n\nK-300P Bastion-P, 3K60 Bal-E","styleUrl":"#m_ylw-pushpin1","icon-scale":1.1,"icon-offset":[32,1],"icon-offset-units":["pixels","pixels"],"icon":"http://maps.google.com/mapfiles/kml/paddle/5.png"}},
{"type":"Feature","geometry":{"type":"Point","coordinates":[33.65239929394411,44.45036740566201,0]},"properties":{"name":"/R 15th Separate Coastal Missile-Artillery Brigade","open":"1","description":"unit 80365\n\nK-300P Bastion-P, 3K60 Bal-E","styleUrl":"#m_ylw-pushpin1","icon-scale":1.1,"icon-offset":[32,1],"icon-offset-units":["pixels","pixels"],"icon":"http://maps.google.com/mapfiles/kml/paddle/5.png"}},
{"type":"Feature","geometry":{"type":"Point","coordinates":[33.54420102945333,44.62756088696623,0]},"properties":{"name":"388th Naval Reconnaissance Point","description":"unit 43071","styleUrl":"#msn_508","icon-opacity":1,"icon-color":"#04ff00","icon-scale":1.1,"icon-offset":[32,1],"icon-offset-units":["pixels","pixels"],"icon":"http://maps.google.com/mapfiles/kml/paddle/5.png"}},
{"type":"Feature","geometry":{"type":"Point","coordinates":[33.38564004431608,45.21494379188807,0]},"properties":{"name":"68th Separate Naval Engineer Regiment","description":"unit 86863","styleUrl":"#msn_508","icon-opacity":1,"icon-color":"#04ff00","icon-scale":1.1,"icon-offset":[32,1],"icon-offset-units":["pixels","pixels"],"icon":"http://maps.google.com/mapfiles/kml/paddle/5.png"}},
{"type":"Feature","geometry":{"type":"Point","coordinates":[33.5269566912695,44.61080882395864,0]},"properties":{"name":"744th Communications Center HQ","description":"unit 40136","styleUrl":"#msn_54","icon-scale":1.1,"icon-offset":[32,1],"icon-offset-units":["pixels","pixels"],"icon":"http://maps.google.com/mapfiles/kml/paddle/5.png"}},
{"type":"Feature","geometry":{"type":"Point","coordinates":[33.54181605162189,44.744530716769,0]},"properties":{"name":"/C 744th Communications Center","open":"1","description":"unit 40136","styleUrl":"#msn_54","icon-scale":1.1,"icon-offset":[32,1],"icon-offset-units":["pixels","pixels"],"icon":"http://maps.google.com/mapfiles/kml/paddle/5.png"}},
{"type":"Feature","geometry":{"type":"Point","coordinates":[34.13988593081186,44.92626937187018,0]},"properties":{"name":"/C 744th Communications Center","description":"unit 40136","styleUrl":"#msn_54","icon-scale":1.1,"icon-offset":[32,1],"icon-offset-units":["pixels","pixels"],"icon":"http://maps.google.com/mapfiles/kml/paddle/5.png"}},
{"type":"Feature","geometry":{"type":"Point","coordinates":[34.47447763288643,44.92983383794746,0]},"properties":{"name":"/C 744th Communications Center","description":"unit 40136","styleUrl":"#msn_54","icon-scale":1.1,"icon-offset":[32,1],"icon-offset-units":["pixels","pixels"],"icon":"http://maps.google.com/mapfiles/kml/paddle/5.png"}},
{"type":"Feature","geometry":{"type":"Point","coordinates":[33.5123938945422,44.50607788620033,0]},"properties":{"name":"475th Separate EW Center","description":"unit 60135\n\nMurmansk-BN, R-330Zh Zhitel, R-934BMV, RB-531B Infauna, 1RL257 Krasukha-4, Leer 3","styleUrl":"#msn_531","icon-scale":1.1,"icon-offset":[32,1],"icon-offset-units":["pixels","pixels"],"icon":"http://maps.google.com/mapfiles/kml/paddle/5.png"}},
{"type":"Feature","geometry":{"type":"Point","coordinates":[33.58639643184564,44.62481724046495,0]},"properties":{"name":"17th Arsenal","description":"unit 13189","styleUrl":"#msn_533","icon-scale":1.1,"icon-offset":[32,1],"icon-offset-units":["pixels","pixels"],"icon":"http://maps.google.com/mapfiles/kml/paddle/5.png"}},
{"type":"Feature","geometry":{"type":"Point","coordinates":[33.56276112357601,44.61438415798271,0]},"properties":{"name":"/C 758th Logistics Center","description":"unit 63876","styleUrl":"#msn_533","icon-scale":1.1,"icon-offset":[32,1],"icon-offset-units":["pixels","pixels"],"icon":"http://maps.google.com/mapfiles/kml/paddle/5.png"}},
{"type":"Feature","geometry":{"type":"Point","coordinates":[33.52017591008191,44.56465847274028,0]},"properties":{"name":"/C 758th Logistics Center","open":"1","description":"unit 63876","styleUrl":"#msn_500","icon-scale":1.1,"icon-offset":[32,1],"icon-offset-units":["pixels","pixels"],"icon":"http://maps.google.com/mapfiles/kml/paddle/5.png"}},
{"type":"Feature","geometry":{"type":"Point","coordinates":[33.53856522903029,44.59387667029338,0]},"properties":{"name":"/C 758th Logistics Center","open":"1","description":"unit 63876","styleUrl":"#msn_533","icon-scale":1.1,"icon-offset":[32,1],"icon-offset-units":["pixels","pixels"],"icon":"http://maps.google.com/mapfiles/kml/paddle/5.png"}},
{"type":"Feature","geometry":{"type":"Point","coordinates":[33.51788957378562,44.59027245440378,0]},"properties":{"name":"/C 758th Logistics Center","open":"1","description":"unit 63876\n\nCommunications equipment warehouse","styleUrl":"#msn_58","icon-scale":1.1,"icon-offset":[32,1],"icon-offset-units":["pixels","pixels"],"icon":"http://maps.google.com/mapfiles/kml/paddle/5.png"}},
{"type":"Feature","geometry":{"type":"Point","coordinates":[33.52017628220516,44.59298422881114,0]},"properties":{"name":"/C 758th Logistics Center","open":"1","description":"unit 63876","styleUrl":"#msn_533","icon-scale":1.1,"icon-offset":[32,1],"icon-offset-units":["pixels","pixels"],"icon":"http://maps.google.com/mapfiles/kml/paddle/5.png"}},
{"type":"Feature","geometry":{"type":"Point","coordinates":[33.92316486717311,44.68407035611542,0]},"properties":{"name":"/C 758th Logistics Center","description":"unit 63876","styleUrl":"#msn_521","icon-scale":1.1,"icon-offset":[32,1],"icon-offset-units":["pixels","pixels"],"icon":"http://maps.google.com/mapfiles/kml/paddle/5.png"}},
{"type":"Feature","geometry":{"type":"Point","coordinates":[33.92664677055765,44.7051673062112,0]},"properties":{"name":"/C 758th Logistics Center","open":"1","description":"unit 63876","styleUrl":"#msn_521","icon-scale":1.1,"icon-offset":[32,1],"icon-offset-units":["pixels","pixels"],"icon":"http://maps.google.com/mapfiles/kml/paddle/5.png"}},
{"type":"Feature","geometry":{"type":"Point","coordinates":[33.55339408195483,44.78067127522128,0]},"properties":{"name":"318th Mixed Aviation Regiment","description":"unit 49311\n\nMi-8, An-26, Ka-27, Be-12","styleUrl":"#m_ylw-pushpin4","icon-opacity":1,"icon-color":"#00a6ff","icon-scale":1.1,"icon-offset":[32,1],"icon-offset-units":["pixels","pixels"],"icon":"http://maps.google.com/mapfiles/kml/paddle/5.png"}},
{"type":"Feature","geometry":{"type":"Point","coordinates":[33.59176764877429,45.09180470358678,0]},"properties":{"name":"43rd Naval Assault Aviation Regiment","description":"unit 76410\n\nSu-30SM, Su-24M, Su-24MP, Tu-134","styleUrl":"#m_ylw-pushpin4","icon-opacity":1,"icon-color":"#00a6ff","icon-scale":1.1,"icon-offset":[32,1],"icon-offset-units":["pixels","pixels"],"icon":"http://maps.google.com/mapfiles/kml/paddle/5.png"}},
{"type":"Feature","geometry":{"type":"Point","coordinates":[33.55723570601904,44.62360775095139,0]},"properties":{"name":"30th Surface Ship Division","description":"unit 10790","styleUrl":"#msn_5015","icon-opacity":1,"icon-color":"#00ff1d","icon-scale":1.1,"icon-offset":[32,1],"icon-offset-units":["pixels","pixels"],"icon":"http://maps.google.com/mapfiles/kml/paddle/5.png"}},
{"type":"Feature","geometry":{"type":"Point","coordinates":[33.49074410801055,44.60638697930101,0]},"properties":{"name":"Diving School of the Black Sea Fleet","description":"unit 56529-7","styleUrl":"#msn_533","icon-scale":1.1,"icon-offset":[32,1],"icon-offset-units":["pixels","pixels"],"icon":"http://maps.google.com/mapfiles/kml/paddle/5.png"}},
{"type":"Feature","geometry":{"type":"Point","coordinates":[33.53042886547225,44.60455039731871,0]},"properties":{"name":"1st Rescue Vessel Group","styleUrl":"#m_ylw-pushpin126","icon-opacity":1,"icon-color":"#00ff00","icon-scale":1.1,"icon-offset":[32,1],"icon-offset-units":["pixels","pixels"],"icon":"http://maps.google.com/mapfiles/kml/paddle/5.png"}},
{"type":"Feature","geometry":{"type":"Point","coordinates":[33.5516926245034,44.61854634795378,0]},"properties":{"name":"2nd Rescue Vessel Group","open":"1","styleUrl":"#m_ylw-pushpin126","icon-opacity":1,"icon-color":"#00ff00","icon-scale":1.1,"icon-offset":[32,1],"icon-offset-units":["pixels","pixels"],"icon":"http://maps.google.com/mapfiles/kml/paddle/5.png"}},
{"type":"Feature","geometry":{"type":"Point","coordinates":[33.53302505877713,44.60356613019292,0]},"properties":{"name":"47th Hydrographic Region","styleUrl":"#msn_5140","icon-opacity":1,"icon-color":"#00ff11","icon-scale":1.1,"icon-offset":[32,1],"icon-offset-units":["pixels","pixels"],"icon":"http://maps.google.com/mapfiles/kml/paddle/5.png"}},
{"type":"Feature","geometry":{"type":"Point","coordinates":[35.39015914637521,45.02607700992524,0]},"properties":{"name":"58th Support Vessel Group","styleUrl":"#msn_5011","icon-opacity":1,"icon-color":"#00ff11","icon-scale":1.1,"icon-offset":[32,1],"icon-offset-units":["pixels","pixels"],"icon":"http://maps.google.com/mapfiles/kml/paddle/5.png"}},
{"type":"Feature","geometry":{"type":"Point","coordinates":[37.7754338794511,44.72709021463592,0]},"properties":{"name":"61st Supply Vessel Detachment","styleUrl":"#msn_5011","icon-opacity":1,"icon-color":"#00ff11","icon-scale":1.1,"icon-offset":[32,1],"icon-offset-units":["pixels","pixels"],"icon":"http://maps.google.com/mapfiles/kml/paddle/5.png"}},
{"type":"Feature","geometry":{"type":"Point","coordinates":[33.5506410644719,44.62611835685788,0]},"properties":{"name":"63rd Under-Repair Ship Brigade","styleUrl":"#msn_5120","icon-opacity":1,"icon-color":"#00ff1d","icon-scale":1.1,"icon-offset":[32,1],"icon-offset-units":["pixels","pixels"],"icon":"http://maps.google.com/mapfiles/kml/paddle/5.png"}},
{"type":"Feature","geometry":{"type":"Point","coordinates":[37.82681410117298,44.7202392723287,0]},"properties":{"name":"80th Hydrographic Region","styleUrl":"#msn_5140","icon-opacity":1,"icon-color":"#00ff11","icon-scale":1.1,"icon-offset":[32,1],"icon-offset-units":["pixels","pixels"],"icon":"http://maps.google.com/mapfiles/kml/paddle/5.png"}},
{"type":"Feature","geometry":{"type":"Point","coordinates":[37.82851918857551,44.7199274102077,0]},"properties":{"name":"55th Separate Hydrographic Vessel Division of the 80th Hydrographic Region","styleUrl":"#msn_5140","icon-opacity":1,"icon-color":"#00ff11","icon-scale":1.1,"icon-offset":[32,1],"icon-offset-units":["pixels","pixels"],"icon":"http://maps.google.com/mapfiles/kml/paddle/5.png"}},
{"type":"Feature","geometry":{"type":"Point","coordinates":[37.37226423737896,45.319194951673,0]},"properties":{"name":"97th Separate Surface Ship Division","styleUrl":"#m_ylw-pushpin126","icon-opacity":1,"icon-color":"#00ff00","icon-scale":1.1,"icon-offset":[32,1],"icon-offset-units":["pixels","pixels"],"icon":"http://maps.google.com/mapfiles/kml/paddle/5.png"}},
{"type":"Feature","geometry":{"type":"Point","coordinates":[33.52886158882936,44.61106846255014,0]},"properties":{"name":"115th Protection and Service Commandant's Office","styleUrl":"#msn_5140","icon-opacity":1,"icon-color":"#00ff11","icon-scale":1.1,"icon-offset":[32,1],"icon-offset-units":["pixels","pixels"],"icon":"http://maps.google.com/mapfiles/kml/paddle/5.png"}},
{"type":"Feature","geometry":{"type":"Point","coordinates":[33.52939944589297,44.60996234221489,0]},"properties":{"name":"145th Rescue Team","styleUrl":"#m_ylw-pushpin126","icon-opacity":1,"icon-color":"#00ff00","icon-scale":1.1,"icon-offset":[32,1],"icon-offset-units":["pixels","pixels"],"icon":"http://maps.google.com/mapfiles/kml/paddle/5.png"}},
{"type":"Feature","geometry":{"type":"Point","coordinates":[33.52993953599108,44.60601488448847,0]},"properties":{"name":"176th Hydrographic Vessel Division","styleUrl":"#msn_5140","icon-opacity":1,"icon-color":"#00ff11","icon-scale":1.1,"icon-offset":[32,1],"icon-offset-units":["pixels","pixels"],"icon":"http://maps.google.com/mapfiles/kml/paddle/5.png"}},
{"type":"Feature","geometry":{"type":"Point","coordinates":[33.52960855604501,44.61345502622974,0]},"properties":{"name":"519th Separate Reconnaissance Ship Division","styleUrl":"#msn_5312","icon-opacity":1,"icon-color":"#00ff00","icon-scale":1.1,"icon-offset":[32,1],"icon-offset-units":["pixels","pixels"],"icon":"http://maps.google.com/mapfiles/kml/paddle/5.png"}},
{"type":"Feature","geometry":{"type":"Point","coordinates":[35.87047962095883,34.91073411227349,0]},"properties":{"name":"720th Material-РђІTechnical Support Point of the Russian Navy","styleUrl":"#msn_5414","icon-opacity":1,"icon-color":"#00ff11","icon-scale":1.1,"icon-offset":[32,1],"icon-offset-units":["pixels","pixels"],"icon":"http://maps.google.com/mapfiles/kml/paddle/5.png"}},
{"type":"Feature","geometry":{"type":"Point","coordinates":[33.57726518533863,44.6130825944258,0]},"properties":{"name":"1st Group of the 205th Supply Vessel Detachment","styleUrl":"#msn_5011","icon-opacity":1,"icon-color":"#00ff11","icon-scale":1.1,"icon-offset":[32,1],"icon-offset-units":["pixels","pixels"],"icon":"http://maps.google.com/mapfiles/kml/paddle/5.png"}},
{"type":"Feature","geometry":{"type":"Point","coordinates":[33.5307238808026,44.60539975276247,0]},"properties":{"name":"2nd Group of the 205th Supply Vessel Detachment","styleUrl":"#msn_5011","icon-opacity":1,"icon-color":"#00ff11","icon-scale":1.1,"icon-offset":[32,1],"icon-offset-units":["pixels","pixels"],"icon":"http://maps.google.com/mapfiles/kml/paddle/5.png"}},
{"type":"Feature","geometry":{"type":"Point","coordinates":[33.52959893820257,44.60733231735622,0]},"properties":{"name":"3rd Group of the 205th Supply Vessel Detachment","styleUrl":"#msn_5011","icon-opacity":1,"icon-color":"#00ff11","icon-scale":1.1,"icon-offset":[32,1],"icon-offset-units":["pixels","pixels"],"icon":"http://maps.google.com/mapfiles/kml/paddle/5.png"}},
{"type":"Feature","geometry":{"type":"Point","coordinates":[33.52828846216384,44.60123097044418,0]},"properties":{"name":"4th Group of the 205th Supply Vessel Detachment","styleUrl":"#msn_5011","icon-opacity":1,"icon-color":"#00ff11","icon-scale":1.1,"icon-offset":[32,1],"icon-offset-units":["pixels","pixels"],"icon":"http://maps.google.com/mapfiles/kml/paddle/5.png"}},
{"type":"Feature","geometry":{"type":"Point","coordinates":[33.70410355880607,44.71445501371161,0]},"properties":{"name":"Protected Command Post of the Black Sea Fleet","styleUrl":"#msn_529","icon-opacity":1,"icon-color":"#00ff1d","icon-scale":1.1,"icon-offset":[32,1],"icon-offset-units":["pixels","pixels"],"icon":"http://maps.google.com/mapfiles/kml/paddle/5.png"}},
{"type":"Feature","geometry":{"type":"Point","coordinates":[33.70943692866824,44.71629306379852,0]},"properties":{"name":"Special Receiving Radio Center of the Black Sea Fleet (?)","styleUrl":"#msn_O5","icon-scale":1.1,"icon-offset":[32,1],"icon-offset-units":["pixels","pixels"],"icon":"http://maps.google.com/mapfiles/kml/paddle/O.png"}},
{"type":"Feature","geometry":{"type":"Point","coordinates":[33.52389855720529,44.61275572345024,0]},"properties":{"name":"Black Sea Fleet HQ","description":"unit 27159","styleUrl":"#msn_51","label-scale":1.3,"icon-opacity":1,"icon-color":"#00ff1d","icon-scale":1.1,"icon-offset":[32,1],"icon-offset-units":["pixels","pixels"],"icon":"http://maps.google.com/mapfiles/kml/paddle/5.png"}},
{"type":"Feature","geometry":{"type":"Point","coordinates":[47.97760777707425,46.30088336651916,0]},"properties":{"name":"327th Missile Boat Division","styleUrl":"#m_ylw-pushpin5","icon-opacity":1,"icon-color":"#19ff00","icon-scale":1.1,"icon-offset":[32,1],"icon-offset-units":["pixels","pixels"],"icon":"http://maps.google.com/mapfiles/kml/paddle/5.png"}},
{"type":"Feature","geometry":{"type":"Point","coordinates":[47.97793400025943,46.30120192949502,0]},"properties":{"name":"198th Minesweeper Division","styleUrl":"#m_ylw-pushpin5","icon-opacity":1,"icon-color":"#19ff00","icon-scale":1.1,"icon-offset":[32,1],"icon-offset-units":["pixels","pixels"],"icon":"http://maps.google.com/mapfiles/kml/paddle/5.png"}},
{"type":"Feature","geometry":{"type":"Point","coordinates":[47.50643739892565,42.98878347026372,0]},"properties":{"name":"250th Guards Surface Ship Division","styleUrl":"#m_ylw-pushpin9","icon-opacity":1,"icon-color":"#00ff2a","icon-scale":1.1,"icon-offset":[32,1],"icon-offset-units":["pixels","pixels"],"icon":"http://maps.google.com/mapfiles/kml/paddle/5.png"}},
{"type":"Feature","geometry":{"type":"Point","coordinates":[47.50768943885904,42.98859610812957,0]},"properties":{"name":"242nd Landing Ship Division","styleUrl":"#m_ylw-pushpin9","icon-opacity":1,"icon-color":"#00ff2a","icon-scale":1.1,"icon-offset":[32,1],"icon-offset-units":["pixels","pixels"],"icon":"http://maps.google.com/mapfiles/kml/paddle/5.png"}},
{"type":"Feature","geometry":{"type":"Point","coordinates":[47.66788137122834,42.86834909108259,0]},"properties":{"name":"177th Naval Infantry Regiment","description":"BTR-70, 2S9 Nona-S, MT-LB","styleUrl":"#m_ylw-pushpin5","icon-opacity":1,"icon-color":"#19ff00","icon-scale":1.1,"icon-offset":[32,1],"icon-offset-units":["pixels","pixels"],"icon":"http://maps.google.com/mapfiles/kml/paddle/5.png"}},
{"type":"Feature","geometry":{"type":"Point","coordinates":[47.50741379462003,42.98796566557034,0]},"properties":{"name":"102nd PDSS Counteraction Special Purpose Detachment","description":"unit 72969","styleUrl":"#msn_568","icon-opacity":1,"icon-color":"#00ff2a","icon-scale":1.1,"icon-offset":[32,1],"icon-offset-units":["pixels","pixels"],"icon":"http://maps.google.com/mapfiles/kml/paddle/5.png"}},
{"type":"Feature","geometry":{"type":"Point","coordinates":[47.98558308368979,46.30850609644478,0]},"properties":{"name":"293rd Search and Rescue Operations Command Rescue Squad","description":"unit 15119","styleUrl":"#m_ylw-pushpin5","icon-opacity":1,"icon-color":"#19ff00","icon-scale":1.1,"icon-offset":[32,1],"icon-offset-units":["pixels","pixels"],"icon":"http://maps.google.com/mapfiles/kml/paddle/5.png"}},
{"type":"Feature","geometry":{"type":"Point","coordinates":[47.66828812931811,45.93944319061401,0]},"properties":{"name":"Logistics Center\nof the Caspian Flotilla","styleUrl":"#m_ylw-pushpin5","icon-opacity":1,"icon-color":"#19ff00","icon-scale":1.1,"icon-offset":[32,1],"icon-offset-units":["pixels","pixels"],"icon":"http://maps.google.com/mapfiles/kml/paddle/5.png"}},
{"type":"Feature","geometry":{"type":"Point","coordinates":[44.44585708825717,48.7671422492208,0]},"properties":{"name":"37th Separate Railway Brigade","description":"unit 51473","styleUrl":"#m_ylw-pushpin53","icon-scale":1.1,"icon-offset":[32,1],"icon-offset-units":["pixels","pixels"],"icon":"http://maps.google.com/mapfiles/kml/paddle/5.png"}},
{"type":"Feature","geometry":{"type":"Point","coordinates":[36.59549501279485,45.35096956033643,0]},"properties":{"name":"/B 39th Separate Railway Brigade","description":"unit 01228","styleUrl":"#m_ylw-pushpin53","icon-scale":1.1,"icon-offset":[32,1],"icon-offset-units":["pixels","pixels"],"icon":"http://maps.google.com/mapfiles/kml/paddle/5.png"}},
{"type":"Feature","geometry":{"type":"Point","coordinates":[38.93848842803927,45.64151427966065,0]},"properties":{"name":"/B 39th Separate Railway Brigade","description":"unit 01228","styleUrl":"#m_ylw-pushpin53","icon-scale":1.1,"icon-offset":[32,1],"icon-offset-units":["pixels","pixels"],"icon":"http://maps.google.com/mapfiles/kml/paddle/5.png"}},
{"type":"Feature","geometry":{"type":"Point","coordinates":[44.57477296244443,48.76302291015694,0]},"properties":{"name":"333rd Separate Pontoon-Bridge Railway Battalion","description":"unit 21483","styleUrl":"#m_ylw-pushpin53","icon-scale":1.1,"icon-offset":[32,1],"icon-offset-units":["pixels","pixels"],"icon":"http://maps.google.com/mapfiles/kml/paddle/5.png"}},
{"type":"Feature","geometry":{"type":"Point","coordinates":[39.22340032304424,44.79377223662444,0]},"properties":{"name":"10th Separate Spetsnaz Brigade","description":"unit 51532\n\nBTR-80, GAZ-233014 STS Tigr, Ural-63095 Typhoon-U","styleUrl":"#m_ylw-pushpin11","icon-scale":1.1,"icon-offset":[32,1],"icon-offset-units":["pixels","pixels"],"icon":"http://maps.google.com/mapfiles/kml/paddle/5.png"}},
{"type":"Feature","geometry":{"type":"Point","coordinates":[39.87921855518218,47.34476356907051,0]},"properties":{"name":"22nd Separate Guards Spetsnaz Brigade","description":"unit 11659\n\nBTR-80, GAZ-233014 STS Tigr, KamAZ-63968 Typhoon","styleUrl":"#msn_52040","icon-scale":1.1,"icon-offset":[32,1],"icon-offset-units":["pixels","pixels"],"icon":"http://maps.google.com/mapfiles/kml/paddle/5.png"}},
{"type":"Feature","geometry":{"type":"Point","coordinates":[44.01921733219185,43.75156070078539,0]},"properties":{"name":"346th Separate Spetsnaz Brigade","description":"unit 31681\n\nGAZ-233014 STS Tigr, Ural-63095 Typhoon-U","styleUrl":"#msn_52040","icon-scale":1.1,"icon-offset":[32,1],"icon-offset-units":["pixels","pixels"],"icon":"http://maps.google.com/mapfiles/kml/paddle/5.png"}},
{"type":"Feature","geometry":{"type":"Point","coordinates":[45.75174482141079,48.58328630078731,0]},"properties":{"name":"439th Guards Rocket Artillery Brigade","description":"unit 48315\n\n9K58 Smerch","styleUrl":"#msn_52040","icon-scale":1.1,"icon-offset":[32,1],"icon-offset-units":["pixels","pixels"],"icon":"http://maps.google.com/mapfiles/kml/paddle/5.png"}},
{"type":"Feature","geometry":{"type":"Point","coordinates":[39.36441664405574,45.52273818553512,0]},"properties":{"name":"77th Anti-Aircraft Missile Brigade","description":"unit 33742\n\nS-300V4","styleUrl":"#m_ylw-pushpin85","icon-scale":1.1,"icon-offset":[32,1],"icon-offset-units":["pixels","pixels"],"icon":"http://maps.google.com/mapfiles/kml/paddle/5.png"}},
{"type":"Feature","geometry":{"type":"Point","coordinates":[39.44238879295843,45.45044563791075,0]},"properties":{"name":"543rd Geospatial Information and Navigation\nCenter","description":"unit 25688","styleUrl":"#m_ylw-pushpin85","icon-scale":1.1,"icon-offset":[32,1],"icon-offset-units":["pixels","pixels"],"icon":"http://maps.google.com/mapfiles/kml/paddle/5.png"}},
{"type":"Feature","geometry":{"type":"Point","coordinates":[45.43471017893854,50.09991341061113,0]},"properties":{"name":"28th Separate NBC Protection Brigade","description":"unit 65363","styleUrl":"#m_ylw-pushpin85","icon-scale":1.1,"icon-offset":[32,1],"icon-offset-units":["pixels","pixels"],"icon":"http://maps.google.com/mapfiles/kml/paddle/5.png"}},
{"type":"Feature","geometry":{"type":"Point","coordinates":[40.26827762479325,48.31128229377773,0]},"properties":{"name":"11th Separate Guards Engineer Brigade","description":"unit 45767","styleUrl":"#m_ylw-pushpin85","icon-scale":1.1,"icon-offset":[32,1],"icon-offset-units":["pixels","pixels"],"icon":"http://maps.google.com/mapfiles/kml/paddle/5.png"}},
{"type":"Feature","geometry":{"type":"Point","coordinates":[38.10352565260329,45.25329548829855,0]},"properties":{"name":"10th Separate Repair and Evacuation Regiment","description":"unit 25356","styleUrl":"#m_ylw-pushpin85","icon-scale":1.1,"icon-offset":[32,1],"icon-offset-units":["pixels","pixels"],"icon":"http://maps.google.com/mapfiles/kml/paddle/5.png"}},
{"type":"Feature","geometry":{"type":"Point","coordinates":[39.89487803891799,47.27458332493249,0]},"properties":{"name":"175th Command and Control Brigade","description":"unit 01957","styleUrl":"#m_ylw-pushpin85","icon-scale":1.1,"icon-offset":[32,1],"icon-offset-units":["pixels","pixels"],"icon":"http://maps.google.com/mapfiles/kml/paddle/5.png"}},
{"type":"Feature","geometry":{"type":"Point","coordinates":[41.72614050851492,45.35188944922144,0]},"properties":{"name":"154th Separate Radio-Technical Brigade","description":"unit 13204","styleUrl":"#m_ylw-pushpin3","icon-scale":1.1,"icon-offset":[32,1],"icon-offset-units":["pixels","pixels"],"icon":"http://maps.google.com/mapfiles/kml/paddle/5.png"}},
{"type":"Feature","geometry":{"type":"Point","coordinates":[44.67921673348208,43.00362233838818,0]},"properties":{"name":"74th Separate Special Purpose Radio-Technical Regiment","description":"unit 68889","styleUrl":"#m_ylw-pushpin3","icon-scale":1.1,"icon-offset":[32,1],"icon-offset-units":["pixels","pixels"],"icon":"http://maps.google.com/mapfiles/kml/paddle/5.png"}},
{"type":"Feature","geometry":{"type":"Point","coordinates":[47.6701964769698,42.8793818531764,0]},"properties":{"name":"305th Separate Radio-Technical Center","description":"unit 74315\n\nMP-300 Podsolnukh-E","styleUrl":"#m_ylw-pushpin3","icon-scale":1.1,"icon-offset":[32,1],"icon-offset-units":["pixels","pixels"],"icon":"http://maps.google.com/mapfiles/kml/paddle/5.png"}},
{"type":"Feature","geometry":{"type":"Point","coordinates":[41.92048399798078,45.04938585549265,0]},"properties":{"name":"n/a Mobile Electronic Intelligence Center","description":"unit 87530","styleUrl":"#m_ylw-pushpin3","icon-scale":1.1,"icon-offset":[32,1],"icon-offset-units":["pixels","pixels"],"icon":"http://maps.google.com/mapfiles/kml/paddle/5.png"}},
{"type":"Feature","geometry":{"type":"Point","coordinates":[39.87116887949604,47.34833489443734,0]},"properties":{"name":"19th Separate EW Brigade","description":"unit 62829","styleUrl":"#m_ylw-pushpin3","icon-scale":1.1,"icon-offset":[32,1],"icon-offset-units":["pixels","pixels"],"icon":"http://maps.google.com/mapfiles/kml/paddle/5.png"}},
{"type":"Feature","geometry":{"type":"Point","coordinates":[40.04025401938407,45.88589577933264,0]},"properties":{"name":"719th Artillery Ammunition Base","description":"unit 01704","styleUrl":"#m_ylw-pushpin102","icon-scale":1.1,"icon-offset":[32,1],"icon-offset-units":["pixels","pixels"],"icon":"http://maps.google.com/mapfiles/kml/paddle/5.png"}},
{"type":"Feature","geometry":{"type":"Point","coordinates":[40.07003444765195,47.41016116277093,0]},"properties":{"name":"744th Artillery Armament Base","description":"unit 42286","styleUrl":"#m_ylw-pushpin102","icon-scale":1.1,"icon-offset":[32,1],"icon-offset-units":["pixels","pixels"],"icon":"http://maps.google.com/mapfiles/kml/paddle/5.png"}},
{"type":"Feature","geometry":{"type":"Point","coordinates":[44.67795039356473,43.04313513396428,0]},"properties":{"name":"54th Intelligence Training Center","description":"unit 90091","styleUrl":"#m_ylw-pushpin07","icon-scale":1.1,"icon-offset":[32,1],"icon-offset-units":["pixels","pixels"],"icon":"http://maps.google.com/mapfiles/kml/paddle/5.png"}},
{"type":"Feature","geometry":{"type":"Point","coordinates":[39.60999272827234,46.53413389476941,0]},"properties":{"name":"670th Armored Equipment\nWarehouse","description":"unit 52205","styleUrl":"#m_ylw-pushpin07","icon-scale":1.1,"icon-offset":[32,1],"icon-offset-units":["pixels","pixels"],"icon":"http://maps.google.com/mapfiles/kml/paddle/5.png"}},
{"type":"Feature","geometry":{"type":"Point","coordinates":[43.66945787840908,49.75469521854909,0]},"properties":{"name":"2728th NBC Weapons and Equipment Storage Base","description":"unit 42751","styleUrl":"#m_ylw-pushpin16","icon-scale":1.1,"icon-offset":[32,1],"icon-offset-units":["pixels","pixels"],"icon":"http://maps.google.com/mapfiles/kml/paddle/5.png"}},
{"type":"Feature","geometry":{"type":"Point","coordinates":[44.68604262568838,48.7874212379967,0]},"properties":{"name":"187th Interspecific Junior Specialists Training Center (Engineer Troops)","description":"unit 73420","styleUrl":"#m_ylw-pushpin16","icon-scale":1.1,"icon-offset":[32,1],"icon-offset-units":["pixels","pixels"],"icon":"http://maps.google.com/mapfiles/kml/paddle/5.png"}},
{"type":"Feature","geometry":{"type":"Point","coordinates":[40.58622755595248,45.44122381570637,0]},"properties":{"name":"91st Communications Equipment\nRepair and Storage Base","description":"unit 69674","styleUrl":"#m_ylw-pushpin16","icon-scale":1.1,"icon-offset":[32,1],"icon-offset-units":["pixels","pixels"],"icon":"http://maps.google.com/mapfiles/kml/paddle/5.png"}},
{"type":"Feature","geometry":{"type":"Point","coordinates":[40.26205731978128,48.27329390317389,0]},"properties":{"name":"7024th Military Equipment Storage and Repair Base","description":"unit 45278","styleUrl":"#m_ylw-pushpin16","icon-scale":1.1,"icon-offset":[32,1],"icon-offset-units":["pixels","pixels"],"icon":"http://maps.google.com/mapfiles/kml/paddle/5.png"}},
{"type":"Feature","geometry":{"type":"Point","coordinates":[39.67248285227593,47.25792857126233,0]},"properties":{"name":"529th Special Purpose Medical Unit","description":"unit 40880","styleUrl":"#m_ylw-pushpin53","icon-scale":1.1,"icon-offset":[32,1],"icon-offset-units":["pixels","pixels"],"icon":"http://maps.google.com/mapfiles/kml/paddle/5.png"}},
{"type":"Feature","geometry":{"type":"Point","coordinates":[41.16866475216237,44.91899513537749,0]},"properties":{"name":"430th Central Small Arms Arsenal","styleUrl":"#m_ylw-pushpin102","icon-scale":1.1,"icon-offset":[32,1],"icon-offset-units":["pixels","pixels"],"icon":"http://maps.google.com/mapfiles/kml/paddle/5.png"}},
{"type":"Feature","geometry":{"type":"Point","coordinates":[39.70488275143187,47.22363685137976,0]},"properties":{"name":"Southern Military District HQ","styleUrl":"#msn_57","label-scale":1.4,"icon-scale":1.1,"icon-offset":[32,1],"icon-offset-units":["pixels","pixels"],"icon":"http://maps.google.com/mapfiles/kml/paddle/5.png"}},
{"type":"Feature","geometry":{"type":"Point","coordinates":[36.9560186633077,55.54032629897123,0]},"properties":{"name":"1st Tank Regiment","description":"unit 58190\n\nT-72B3, BMP-2, 2S1 Gvozdika","styleUrl":"#m_ylw-pushpin400","icon-scale":1.1,"icon-offset":[32,1],"icon-offset-units":["pixels","pixels"],"icon":"http://maps.google.com/mapfiles/kml/paddle/5.png"}},
{"type":"Feature","geometry":{"type":"Point","coordinates":[36.96815598809418,55.54677540953207,0]},"properties":{"name":"1st Guards Motor Rifle Regiment","description":"unit 31135\n\nT-72B3, BTR-80/82A, 2S1 Gvozdika","styleUrl":"#m_ylw-pushpin400","icon-scale":1.1,"icon-offset":[32,1],"icon-offset-units":["pixels","pixels"],"icon":"http://maps.google.com/mapfiles/kml/paddle/5.png"}},
{"type":"Feature","geometry":{"type":"Point","coordinates":[36.98442628471617,55.56181256176898,0]},"properties":{"name":"15th Guards Motor Rifle Regiment","description":"unit 31134\n\nT-72B3, BMP-2, 2S1 Gvozdika","styleUrl":"#m_ylw-pushpin1100","icon-scale":1.1,"icon-offset":[32,1],"icon-offset-units":["pixels","pixels"],"icon":"http://maps.google.com/mapfiles/kml/paddle/5.png"}},
{"type":"Feature","geometry":{"type":"Point","coordinates":[36.97023551297903,55.5446625855533,0]},"properties":{"name":"147th Guards Self-Propelled Artillery Regiment","description":"unit 73966\n\n2S33 Msta-SM/SM2, 9K51M Tornado-G","styleUrl":"#m_ylw-pushpin400","icon-scale":1.1,"icon-offset":[32,1],"icon-offset-units":["pixels","pixels"],"icon":"http://maps.google.com/mapfiles/kml/paddle/5.png"}},
{"type":"Feature","geometry":{"type":"Point","coordinates":[36.98607830134998,55.58482828089232,0]},"properties":{"name":"1117th Anti-Aircraft Missile Regiment","description":"unit 51382\n\n9K331 Tor-M1-U2","styleUrl":"#m_ylw-pushpin400","icon-scale":1.1,"icon-offset":[32,1],"icon-offset-units":["pixels","pixels"],"icon":"http://maps.google.com/mapfiles/kml/paddle/5.png"}},
{"type":"Feature","geometry":{"type":"Point","coordinates":[36.97424070083193,55.55166484697426,0]},"properties":{"name":"1174th Separate Anti-Tank Squadron","description":"unit 51381\n\n9K123 Khrizantema\n\nSpecLocUnknown","styleUrl":"#m_ylw-pushpin1100","icon-scale":1.1,"icon-offset":[32,1],"icon-offset-units":["pixels","pixels"],"icon":"http://maps.google.com/mapfiles/kml/paddle/5.png"}},
{"type":"Feature","geometry":{"type":"Point","coordinates":[36.95493518270884,55.54295492870992,0]},"properties":{"name":"211st Separate Engineer-Sapper Battalion","description":"unit 77707","styleUrl":"#m_ylw-pushpin1100","icon-scale":1.1,"icon-offset":[32,1],"icon-offset-units":["pixels","pixels"],"icon":"http://maps.google.com/mapfiles/kml/paddle/5.png"}},
{"type":"Feature","geometry":{"type":"Point","coordinates":[36.96248876958491,55.5559512974873,0]},"properties":{"name":"136th Separate Reconnaissance Battalion","description":"unit 51387","styleUrl":"#m_ylw-pushpin1100","icon-scale":1.1,"icon-offset":[32,1],"icon-offset-units":["pixels","pixels"],"icon":"http://maps.google.com/mapfiles/kml/paddle/5.png"}},
{"type":"Feature","geometry":{"type":"Point","coordinates":[36.98499720234572,55.56449416138361,0]},"properties":{"name":"47h Separate Communications Battalion","description":"unit 56139","styleUrl":"#m_ylw-pushpin1100","icon-scale":1.1,"icon-offset":[32,1],"icon-offset-units":["pixels","pixels"],"icon":"http://maps.google.com/mapfiles/kml/paddle/5.png"}},
{"type":"Feature","geometry":{"type":"Point","coordinates":[36.97486960223478,55.56404857891202,0]},"properties":{"name":"1063rd Separate Material Support Battalion","description":"unit 56155","styleUrl":"#m_ylw-pushpin1100","icon-scale":1.1,"icon-offset":[32,1],"icon-offset-units":["pixels","pixels"],"icon":"http://maps.google.com/mapfiles/kml/paddle/5.png"}},
{"type":"Feature","geometry":{"type":"Point","coordinates":[36.7436023673264,55.40221722015655,0]},"properties":{"name":"12nd Guards Tank Regiment","description":"unit 31985\n\nT-80U, BMP-2, 2S1 Gvozdika","styleUrl":"#m_ylw-pushpin090","icon-scale":1.1,"icon-offset":[32,1],"icon-offset-units":["pixels","pixels"],"icon":"http://maps.google.com/mapfiles/kml/paddle/5.png"}},
{"type":"Feature","geometry":{"type":"Point","coordinates":[36.74635201400955,55.40388719931687,0]},"properties":{"name":"13rd Guards Tank Regiment","description":"unit 32010\n\nT-80U, BMP-2, 2S1 Gvozdika","styleUrl":"#m_ylw-pushpin090","icon-scale":1.1,"icon-offset":[32,1],"icon-offset-units":["pixels","pixels"],"icon":"http://maps.google.com/mapfiles/kml/paddle/5.png"}},
{"type":"Feature","geometry":{"type":"Point","coordinates":[36.73741549357811,55.41303197878396,0]},"properties":{"name":"423rd Motor Rifle Regiment","description":"unit 91701\n\nT-72B3, BMP-2, 2S1 Gvozdika","styleUrl":"#m_ylw-pushpin090","icon-scale":1.1,"icon-offset":[32,1],"icon-offset-units":["pixels","pixels"],"icon":"http://maps.google.com/mapfiles/kml/paddle/5.png"}},
{"type":"Feature","geometry":{"type":"Point","coordinates":[36.74238761731468,55.40323042948182,0]},"properties":{"name":"275th Guards Self-Propelled Artillery Regiment","description":"unit 73941\n\n2S19M2 Msta-SM, 2B17M Tornado-G","styleUrl":"#m_ylw-pushpin090","icon-scale":1.1,"icon-offset":[32,1],"icon-offset-units":["pixels","pixels"],"icon":"http://maps.google.com/mapfiles/kml/paddle/5.png"}},
{"type":"Feature","geometry":{"type":"Point","coordinates":[36.74117319992863,55.40871890850817,0]},"properties":{"name":"538th Guards Anti-Aircraft Missile Regiment","description":"unit 51383\n\n9K331M Tor-2M","styleUrl":"#m_ylw-pushpin61","icon-scale":1.1,"icon-offset":[32,1],"icon-offset-units":["pixels","pixels"],"icon":"http://maps.google.com/mapfiles/kml/paddle/5.png"}},
{"type":"Feature","geometry":{"type":"Point","coordinates":[36.75153599388288,55.40493554682733,0]},"properties":{"name":"137th Separate Reconnaissance Battalion","description":"unit 54919","styleUrl":"#m_ylw-pushpin61","icon-scale":1.1,"icon-offset":[32,1],"icon-offset-units":["pixels","pixels"],"icon":"http://maps.google.com/mapfiles/kml/paddle/5.png"}},
{"type":"Feature","geometry":{"type":"Point","coordinates":[36.74749297963043,55.41018676505323,0]},"properties":{"name":"413rd Separate Communications Battalion","description":"unit 56132","styleUrl":"#m_ylw-pushpin400","icon-scale":1.1,"icon-offset":[32,1],"icon-offset-units":["pixels","pixels"],"icon":"http://maps.google.com/mapfiles/kml/paddle/5.png"}},
{"type":"Feature","geometry":{"type":"Point","coordinates":[36.75550429909934,55.40898670679671,0]},"properties":{"name":"1088th Separate Material Support Battalion","description":"unit 56164","styleUrl":"#m_ylw-pushpin400","icon-scale":1.1,"icon-offset":[32,1],"icon-offset-units":["pixels","pixels"],"icon":"http://maps.google.com/mapfiles/kml/paddle/5.png"}},
{"type":"Feature","geometry":{"type":"Point","coordinates":[36.75825860636754,55.40332896494615,0]},"properties":{"name":"165th Separate Medical Battalion","description":"unit 57069","styleUrl":"#m_ylw-pushpin400","icon-scale":1.1,"icon-offset":[32,1],"icon-offset-units":["pixels","pixels"],"icon":"http://maps.google.com/mapfiles/kml/paddle/5.png"}},
{"type":"Feature","geometry":{"type":"Point","coordinates":[42.94041660618061,56.32181631829392,0]},"properties":{"name":"6th Separate Tank Brigade","description":"unit 54096\n\nT-72B3, BMP-3, BM-21 Grad, 2S3 Akatsiya","styleUrl":"#msn_54100","icon-scale":1.1,"icon-offset":[32,1],"icon-offset-units":["pixels","pixels"],"icon":"http://maps.google.com/mapfiles/kml/paddle/5.png"}},
{"type":"Feature","geometry":{"type":"Point","coordinates":[37.46554879293825,55.61401062026077,0]},"properties":{"name":"27th Guards Motor Rifle Brigade","description":"unit 61899\n\nCommand: Colonel Dmitriy Aksonov\n\nT-90A, BMP-3, BTR-82A, 2S3 Akatsiya","styleUrl":"#m_ylw-pushpin1100","icon-scale":1.1,"icon-offset":[32,1],"icon-offset-units":["pixels","pixels"],"icon":"http://maps.google.com/mapfiles/kml/paddle/5.png"}},
{"type":"Feature","geometry":{"type":"Point","coordinates":[41.38131415846767,56.83826632446293,0]},"properties":{"name":"112nd Guards Missile Division","description":"unit 03333\n\n9K720 Iskander-M","styleUrl":"#m_ylw-pushpin0110","icon-scale":1.1,"icon-offset":[32,1],"icon-offset-units":["pixels","pixels"],"icon":"http://maps.google.com/mapfiles/kml/paddle/5.png"}},
{"type":"Feature","geometry":{"type":"Point","coordinates":[42.9483521176831,56.30871926370241,0]},"properties":{"name":"288th Artillery Brigade","description":"unit 30683\n\n2A65 Msta-B, BM-27 Uragan, 9K114 Shturm","styleUrl":"#msn_51210","icon-scale":1.1,"icon-offset":[32,1],"icon-offset-units":["pixels","pixels"],"icon":"http://maps.google.com/mapfiles/kml/paddle/5.png"}},
{"type":"Feature","geometry":{"type":"Point","coordinates":[36.30484867226439,51.70190270095658,0]},"properties":{"name":"53rd Anti-Aircraft Missile Brigade","description":"unit 32406\n\n9K37 Buk-M1","styleUrl":"#m_ylw-pushpin0110","icon-scale":1.1,"icon-offset":[32,1],"icon-offset-units":["pixels","pixels"],"icon":"http://maps.google.com/mapfiles/kml/paddle/5.png"}},
{"type":"Feature","geometry":{"type":"Point","coordinates":[43.79511568856758,56.34532001808159,0]},"properties":{"name":"96th Separate Reconnaissance Brigade","description":"unit 52634\n\nCommand: Colonel Valery Vdovichenko","styleUrl":"#m_ylw-pushpin0110","icon-scale":1.1,"icon-offset":[32,1],"icon-offset-units":["pixels","pixels"],"icon":"http://maps.google.com/mapfiles/kml/paddle/5.png"}},
{"type":"Feature","geometry":{"type":"Point","coordinates":[37.28322576468928,55.68399048365273,0]},"properties":{"name":"/B 60th Command and Control Brigade","description":"unit 73621","styleUrl":"#m_ylw-pushpin005","icon-scale":1.1,"icon-offset":[32,1],"icon-offset-units":["pixels","pixels"],"icon":"http://maps.google.com/mapfiles/kml/paddle/5.png"}},
{"type":"Feature","geometry":{"type":"Point","coordinates":[36.93683535623302,55.5236256322325,0]},"properties":{"name":"/B 60th Command and Control Brigade","description":"unit 76736","styleUrl":"#msn_526","icon-scale":1.1,"icon-offset":[32,1],"icon-offset-units":["pixels","pixels"],"icon":"http://maps.google.com/mapfiles/kml/paddle/5.png"}},
{"type":"Feature","geometry":{"type":"Point","coordinates":[42.7980810147661,56.29597349956251,0]},"properties":{"name":"20th Separate NBC Protection Regiment","description":"unit 12102","styleUrl":"#m_ylw-pushpin005","icon-scale":1.1,"icon-offset":[32,1],"icon-offset-units":["pixels","pixels"],"icon":"http://maps.google.com/mapfiles/kml/paddle/5.png"}},
{"type":"Feature","geometry":{"type":"Point","coordinates":[43.48683061323041,56.24342581480148,0]},"properties":{"name":"69th Separate Material-Technical Support Brigade","description":"unit 11385","styleUrl":"#msn_52100","icon-scale":1.1,"icon-offset":[32,1],"icon-offset-units":["pixels","pixels"],"icon":"http://maps.google.com/mapfiles/kml/paddle/5.png"}},
{"type":"Feature","geometry":{"type":"Point","coordinates":[37.32647770487279,55.68090350312196,0]},"properties":{"name":"1st Guards Tank Army HQ","description":"unit 73621","styleUrl":"#msn_511","label-scale":1.3,"icon-scale":1.1,"icon-offset":[32,1],"icon-offset-units":["pixels","pixels"],"icon":"http://maps.google.com/mapfiles/kml/paddle/5.png"}},
{"type":"Feature","geometry":{"type":"Point","coordinates":[39.06103700429014,50.86554298789929,0]},"properties":{"name":"Separate Material-Technical Support Brigade","styleUrl":"#msn_52100","icon-scale":1.1,"icon-offset":[32,1],"icon-offset-units":["pixels","pixels"],"icon":"http://maps.google.com/mapfiles/kml/paddle/5.png"}},
{"type":"Feature","geometry":{"type":"Point","coordinates":[29.81658718719094,58.74889541053387,0]},"properties":{"name":"25th Separate Guards Motor Rifle Brigade","description":"unit 29760\n\nCommand: Colonel Dogoter Alexey Ivanovich\n\nлб-72B, MT-LB, BTR-80, 2S1 Gvozdika","styleUrl":"#msn_52100","icon-scale":1.1,"icon-offset":[32,1],"icon-offset-units":["pixels","pixels"],"icon":"http://maps.google.com/mapfiles/kml/paddle/5.png"}},
{"type":"Feature","geometry":{"type":"Point","coordinates":[29.10569314483713,60.44271348334123,0]},"properties":{"name":"138th Separate Guards Motor Rifle Brigade","description":"unit 02511\n\nCommand: Vasily Kolchin\n\nT-72B, MT-LB, 2B16 Nona-K, BTR-80","styleUrl":"#m_ylw-pushpin0620","icon-scale":1.1,"icon-offset":[32,1],"icon-offset-units":["pixels","pixels"],"icon":"http://maps.google.com/mapfiles/kml/paddle/5.png"}},
{"type":"Feature","geometry":{"type":"Point","coordinates":[29.80244393097845,58.74744623286711,0]},"properties":{"name":"26th Missile Brigade","description":"unit 54006\n\n9K720 Iskander","styleUrl":"#m_ylw-pushpin0620","icon-scale":1.1,"icon-offset":[32,1],"icon-offset-units":["pixels","pixels"],"icon":"http://maps.google.com/mapfiles/kml/paddle/5.png"}},
{"type":"Feature","geometry":{"type":"Point","coordinates":[29.83167308460646,58.68103229904996,0]},"properties":{"name":"9th Guards Artillery Brigade","description":"unit 02561\n\n2S19 Msta-S, BM-27 Uragan, 9K114 Shturm","styleUrl":"#m_ylw-pushpin0620","icon-scale":1.1,"icon-offset":[32,1],"icon-offset-units":["pixels","pixels"],"icon":"http://maps.google.com/mapfiles/kml/paddle/5.png"}},
{"type":"Feature","geometry":{"type":"Point","coordinates":[29.77389912035505,59.88951366031888,0]},"properties":{"name":"/B 5th Anti-Aircraft Missile Brigade","description":"unit 74429\n\n9K331 Tor-M1","styleUrl":"#m_ylw-pushpin0620","icon-scale":1.1,"icon-offset":[32,1],"icon-offset-units":["pixels","pixels"],"icon":"http://maps.google.com/mapfiles/kml/paddle/5.png"}},
{"type":"Feature","geometry":{"type":"Point","coordinates":[30.09557141055621,59.77733713020302,0]},"properties":{"name":"/B 5th Anti-Aircraft Missile Brigade","description":"unit 74429\n\n9K317 Buk-M2","styleUrl":"#m_ylw-pushpin0620","icon-scale":1.1,"icon-offset":[32,1],"icon-offset-units":["pixels","pixels"],"icon":"http://maps.google.com/mapfiles/kml/paddle/5.png"}},
{"type":"Feature","geometry":{"type":"Point","coordinates":[30.11378512669923,59.77613390155582,0]},"properties":{"name":"/B 95th Command and Control Brigade","description":"unit 13821","styleUrl":"#msn_526","icon-scale":1.1,"icon-offset":[32,1],"icon-offset-units":["pixels","pixels"],"icon":"http://maps.google.com/mapfiles/kml/paddle/5.png"}},
{"type":"Feature","geometry":{"type":"Point","coordinates":[30.31720145579342,60.31817448032226,0]},"properties":{"name":"140th Guards Engineer-Sapper Regiment","description":"unit 18437","styleUrl":"#m_ylw-pushpin0620","icon-scale":1.1,"icon-offset":[32,1],"icon-offset-units":["pixels","pixels"],"icon":"http://maps.google.com/mapfiles/kml/paddle/5.png"}},
{"type":"Feature","geometry":{"type":"Point","coordinates":[30.12321951879084,59.71625706906827,0]},"properties":{"name":"51st Material-Technical Support Brigade","description":"unit 72152","styleUrl":"#msn_507","icon-scale":1.1,"icon-offset":[32,1],"icon-offset-units":["pixels","pixels"],"icon":"http://maps.google.com/mapfiles/kml/paddle/5.png"}},
{"type":"Feature","geometry":{"type":"Point","coordinates":[30.21536652565267,60.12830145928978,0]},"properties":{"name":"67th Separate Automobile Battalion","description":"unit 11255","styleUrl":"#msn_507","icon-scale":1.1,"icon-offset":[32,1],"icon-offset-units":["pixels","pixels"],"icon":"http://maps.google.com/mapfiles/kml/paddle/5.png"}},
{"type":"Feature","geometry":{"type":"Point","coordinates":[30.27898370865489,60.2316217362867,0]},"properties":{"name":"6th Combined Arms Army HQ","description":"unit 31807","styleUrl":"#msn_511","label-scale":1.3,"icon-scale":1.1,"icon-offset":[32,1],"icon-offset-units":["pixels","pixels"],"icon":"http://maps.google.com/mapfiles/kml/paddle/5.png"}},
{"type":"Feature","geometry":{"type":"Point","coordinates":[38.11412124327833,50.22123179553684,0]},"properties":{"name":"237th Guards Tank Regiment","description":"unit 91726\n\nT-72B3/BM, BMP-2, 2A63 Msta-B","styleUrl":"#msn_52100","icon-scale":1.1,"icon-offset":[32,1],"icon-offset-units":["pixels","pixels"],"icon":"http://maps.google.com/mapfiles/kml/paddle/5.png"}},
{"type":"Feature","geometry":{"type":"Point","coordinates":[40.4832695757087,49.94007352001985,0]},"properties":{"name":"252nd Guards Motor Rifle Regiment","description":"unit 91711 \n\nT-72B3, BMP-2, 2A63 Msta-B","styleUrl":"#msn_52100","icon-scale":1.1,"icon-offset":[32,1],"icon-offset-units":["pixels","pixels"],"icon":"http://maps.google.com/mapfiles/kml/paddle/5.png"}},
{"type":"Feature","geometry":{"type":"Point","coordinates":[38.11699473149204,50.2270143686765,0]},"properties":{"name":"752nd Motor Rifle Regiment","description":"unit 34670\n\nT-72BM, BTR-80/82A, 2S23 Nona-SBK","styleUrl":"#msn_52100","icon-scale":1.1,"icon-offset":[32,1],"icon-offset-units":["pixels","pixels"],"icon":"http://maps.google.com/mapfiles/kml/paddle/5.png"}},
{"type":"Feature","geometry":{"type":"Point","coordinates":[40.49130396395968,49.93706583619431,0]},"properties":{"name":"99th Self Propelled Artillery Regiment","description":"unit 91727 \n\n2S33 Msta-SM, BM-21 Grad","styleUrl":"#m_ylw-pushpin121","icon-scale":1.1,"icon-offset":[32,1],"icon-offset-units":["pixels","pixels"],"icon":"http://maps.google.com/mapfiles/kml/paddle/5.png"}},
{"type":"Feature","geometry":{"type":"Point","coordinates":[40.4916783199375,49.93849730137373,0]},"properties":{"name":"159th Separate Anti-Tank Battalion","description":"unit 81989\n\n9K114 Shturm-S","styleUrl":"#m_ylw-pushpin121","icon-scale":1.1,"icon-offset":[32,1],"icon-offset-units":["pixels","pixels"],"icon":"http://maps.google.com/mapfiles/kml/paddle/5.png"}},
{"type":"Feature","geometry":{"type":"Point","coordinates":[38.11872579171634,50.2229625134512,0]},"properties":{"name":"84th Separate Reconnaissance Battalion","description":"unit 22263","styleUrl":"#m_ylw-pushpin121","icon-scale":1.1,"icon-offset":[32,1],"icon-offset-units":["pixels","pixels"],"icon":"http://maps.google.com/mapfiles/kml/paddle/5.png"}},
{"type":"Feature","geometry":{"type":"Point","coordinates":[40.49487407614954,49.93749606240073,0]},"properties":{"name":"337th Separate Engineer-Sapper Battalion","description":"unit 91717","styleUrl":"#m_ylw-pushpin121","icon-scale":1.1,"icon-offset":[32,1],"icon-offset-units":["pixels","pixels"],"icon":"http://maps.google.com/mapfiles/kml/paddle/5.png"}},
{"type":"Feature","geometry":{"type":"Point","coordinates":[38.12549919809898,50.22087534526766,0]},"properties":{"name":"692nd Separate Communications Battalion","description":"unit 22463","styleUrl":"#m_ylw-pushpin121","icon-scale":1.1,"icon-offset":[32,1],"icon-offset-units":["pixels","pixels"],"icon":"http://maps.google.com/mapfiles/kml/paddle/5.png"}},
{"type":"Feature","geometry":{"type":"Point","coordinates":[40.49030567579163,49.93856538918076,0]},"properties":{"name":"911st Separate Material-Technical Support Battalion","description":"unit 54366","styleUrl":"#m_ylw-pushpin121","icon-scale":1.1,"icon-offset":[32,1],"icon-offset-units":["pixels","pixels"],"icon":"http://maps.google.com/mapfiles/kml/paddle/5.png"}},
{"type":"Feature","geometry":{"type":"Point","coordinates":[40.49182333830269,49.93765404562701,0]},"properties":{"name":"231st Separate Medical Battalion","description":"unit 83833","styleUrl":"#m_ylw-pushpin121","icon-scale":1.1,"icon-offset":[32,1],"icon-offset-units":["pixels","pixels"],"icon":"http://maps.google.com/mapfiles/kml/paddle/5.png"}},
{"type":"Feature","geometry":{"type":"Point","coordinates":[32.27110177287811,52.72063372790052,0]},"properties":{"name":"182nd Motor Rifle Regiment","styleUrl":"#msn_5020","icon-scale":1.1,"icon-offset":[32,1],"icon-offset-units":["pixels","pixels"],"icon":"http://maps.google.com/mapfiles/kml/paddle/5.png"}},
{"type":"Feature","geometry":{"type":"Point","coordinates":[32.24944734191274,52.74624713518163,0]},